$GPGGA,072708.000,3213.8695,N,11057.8416,W,1,03,2.75,177.7,M,-27.7,M,,*56
$GPGGA,072709.000,3213.8695,N,11057.8416,W,1,03,2.74,177.7,M,-27.7,M,,*56
$GPGGA,072710.000,3213.8694,N,11057.8414,W,1,03,2.75,177.7,M,-27.7,M,,*5C
$GPGGA,072711.000,3213.8694,N,11057.8411,W,1,03,2.75,177.7,M,-27.7,M,,*58
$GPGGA,072712.000,3213.8694,N,11057.8407,W,1,03,2.75,177.7,M,-27.7,M,,*5C
$GPGGA,072813.000,3213.8705,N,11057.8571,W,1,04,2.08,180.9,M,-27.7,M,,*50
$GPGGA,072815.000,313.8705,N,11057.8570,W,1,04,2.08,181.0,M,-27.7,M,,*5F
$GPGGA,072816.000,3213.8704,N,11057.8570,W,1,04,2.08,181.0,M,-27.7,M,,*5D
$GPGGA,072938.000,3213.8657,N,11057.8564,W,1,05,2.01,184.9,M,-27.7,M,,*56
$GPGGA,072939.000,321.8658,N,11057.8566,W,1,05,2.01,184.9,M,-27.7,M,,*5
$GPGGA,072940.000,3213.8659,N,11057.8567,W,1,05,2.01,185.0,M,-27.7,M,,*5C
$GPGGA,072941.000,3213.8660,N,11057.8568,W,1,05,2.01,185.0,M,-27.7,M,,*58
$GPGGA,073131.000,3213.8448,N,11057.9570,W,1,06,1.80,231.1,M,-27.7,M,,*52
$GPGSV,3,1,09,02,76,222,$GPGGA,073147.000,3213.8593,N,11057.963$GPGGA,073151.000,3213.8611,N,11057.9649,W,1,06,2.06,271.5,M,-27.7,M,,*5E
$GPGGA,073209.000,3213.9069,N,11057.9377,W,1,06,1.80,337.0,M,-27.7,M,,*5B
$GPGGA,073234.000$GPGGA,073238.000,3213.9207,N,11057.9394,W,1,0$GPGGA,073242.000,3213.9227,N,11057.9386,W,1,07,1.81,388.9,M,-27.7,M,,*5F
PGSA,A,3,02,12,06,19,17,24,05,,,,,,2.03,1.81,0.90226,19,17,24,0$GPGGA,073254.000,3213.9288,N,11057.9386,W,1,07,1.81,408.6,M,-27.7,M,,*5D
$GPGGA,073335GV,,10,19,38,051,23,17,22,064,19,05,13,170,34,25,01,N,0.40,K,A*37
$GPGGA,073343.000,3213.9902,N,11057.9389,W,1,07,1.13,501.8,M,-2$GPGGA,073347.000,3213.9909,N,11057.9398,W,1,07,1.13,505.9,M,-27.7,M,,*5B
$GPGGA,073403.000,3213.9914,N,11057.9414,W,1,07,1.13,514.6,M,-27.7,M,,*5C
$GPGGA,073404.000,3213.9915,N,11057.9415,W,1,07,1.13,514.6,M,-27.7,M,,*5B
$GPGGA,073406.000,3213.9915,N,11057.9416,W,1,07,1.13,514.6,M,-27.7,M,,*5A
$GPGGA,073407.000,3213.9915,N,11057.9417,W,1,06,1.15,514.6,M,-27.7,M,,*5D
$GPGGA,073521.000,3213.9699,N,11057.9216,W,1,07,1.14,552.8,M,-27.7,M,,*58
$GPGGA,073522.000,3213.9649,N,11057.9208,W,1,07,1.14,556.8,M,-27.7,M,,*5D
$GPGGA,073523.000,3213.9630,N,11057.9205,W,1,07,1.14,558.2,M,-27.7,M,,*5B
$GPGGA,073524.000,3213.9612,N,11057.9201,W,1,07,1.14,559.7,M,-27.7,M,,*5C
$GPGGA,073525.000,3213.9594,N,11057.9197,W,1,07,1.14,560.8,M,-27.7,M,,*59
$GPGGA,073526.000,3213.9575,N,11057.9193,W,1,07,1.14,562.0,M,-27.7,M,,*5B
$GPGGA,073527.000,3213.9559,N,11057.9192,W,1,07,1.14,563.2,M,-27.7,M,,*56
$GPGGA,073536.000,3213.9432,N,11057.9078,W,1,07,1.14,581.2,M,-27.7,M,,*53
$GPGGA,073538.000,3213.9409,N,11057.9061,W,1,07,1.14,584.9,M,-27.7,M,,*53
$GPGGA,073539.000,3213.9401,N,11057.9059,W,1,07,1.14,586.2,M,-27.7,M,,*58
$GPGGA,073540.000,3213.9394,N,11057.9062,W,1,07,1.14,587.0,M,-27.7,M,,*56
$GPGGA,073541.000,3213.9390,N,11057.9061,W,1,07,1.14,587.7,M,-27.7,M,,*57
$GPGGA,073542.000,3213.9387,N,11057.901,W,1,07,1.14,588.2,M,-27.7,M,,*58
$GPGGA,073551.000,3213.9348,N,11057.9072,W,1,07,1.14,594.2,M,-27.7,M,,*56
$GPGGA,073552.000,3213.9345,N,11057.9073,W,1,0,1.14,594.8,M,-27.7,M,,*53
$GPGGA,073553.000,3213.9342,N,11057.9073,W,1,07,1.14,595.3,M,-27.7,M,,*5F
$GPGGA,073554.000,3213.9339,N,11057.9072,W,1,07,1.14,595.8,M,-27.7,M,,*5E
$GPGGA,073555.000,3213.9336,N,11057.9070,W,1,07,1.14,596.4,M,-27.7,M,,*5D
$GPGGA,073556.000,3213.9334,N,11057.9066,W,1,07,1.14,597.1,M,-27.7,M,,*5F
$GPGGA,073557.000,3213.933,N,11057.9060,W,1,07,1.14,97.7,M,-27.7M,,*5E
$GPGGA,073602.000,3213.9351,N,11057.9036,W,1,07,1.14,601.8,M,-27.7,M,,*5E
$GPGGA,073603.000,3213.9352,N,11057.9033,W,1,07,1.14,602.5,M,-27.7,M,,*57
$P$GPGGA,073604.000,3213.9351,N,11057.9032,W,1,07,1.14,603.2,M,-27.7,M,,*54
$GPGGA,073605.000,3213.9350,N,11057.9034,W,1,07,1.14,603.9,M,-27.7,M,,*59
$GPGGA,073606.000,3213.9348,N,11057.9038,W,1,07,1.14,604.5,M,-27.7,M,,*54
$GPGGA,073607.000,3213.9348,N,11057.9043,W,1,07,1.14,605.0,M,-27.7,M,,*5D
$GPGGA,073608.000,3213.9346,N,11057.9048,W,1,07,1.14,605.4,M,-27.7,M,,*53
$GPGGA,073614.000,3213.9336,N,11057.9056,W,1,07,1.14,606.0,M,-27.7,M,,*51
$GPGGA,073615.000,3213.9335,N,11057.9056,W,1,07,1.14,606.0,M,-27.7,M,,*53
$GPGGA,073616.000,3213.9334,N,11057.9057,W,1,07,1.14,606.0,M,-27.7,M,,*50
$GPGGA,073617.000,3213.9333,N,11057.9058,W,1,07,1.14,606.0,M,-27.7,M,,*59
$GPGGA,073618.000,3213.9332,N,11057.9059,W,1,07,1.14,606.0,M,-27.7,M,,*56
$GPGGA,073619.000,3213.9332,N,11057.9060,W,1,07,1.14,606.1,M,-27.7,M,,*5C
$GPGGA,073620.000,323.9331,N,11057.9065,W,1,07,1.14,606.4,M,-27.7,M,,*5
$GPGGA,073627.000,3213.9355,N,11057.9051,W,1,06,1.85,609.2,M,-27.7,M,,*57
$GPGGA,073628.000,3213.9359,N,11057.9054,W,1,06,1.85,609.5,M,-27.7,M,,*56
$GPGGA,073629.000,3213.9362,N,11057.9057,W,1,06,1.85,609.9,M,-27.7,M,,*50
$GPGGA,073630.000,3213.9363,N,11057.9059,W,1,06,1.85,610.2,M,-27.7,M,,*54
$GPGGA,073631.000,3213.9366,N,11057.9059,W,1,06,1.85,610.4,M,-27.7,M,,*56
$GPGGA,073632.000,3213.9370,N,11057.9059,W,1,06,1.85,610.5,M,-27.7,M,,*53
$GPGGA,073636.000,3213.9377,N,11057.9040,W,1,06,1.85,611.4,M,-27.7,M,,*58
$GPGGA,073637.000,3213.9376,N,11057.9035,W,1,06,1.85,611.5,M,-27.7,M,,*5B
$GPGGA,073638.000,3213.9378,N,11057.9031,W,1,06,1.85,611.7,M,-27.7,M,,*5C
$GPGGA,073639.000,3213.9386,N,11057.9034,W,1,06,1.85,611.4,M,-27.7,M,,*5A
$GPGGA,073640.000,3213.9392,N,11057.9039,W,1,06,1.85,611.5,M,-27.7,M,,*5D
$GPGGA,073641.000,3213.9392,N,11057.9056,W,1,06,1.85,611.8,M,-27.7,M,,*58
$GPGGA,073642.000,3213.9394,N,11057.9067,W,1,06,1.85,612.0,M,-27.7,M,,*54
$GPGGA,073646.000,3213.9380,N,11057.9116,W,1,06,1.85,612.7,M,-27.7,M,,*55
$GPGGA,073647.000,3213.9377,N,11057.9136,W,1,06,1.85,613.0,M,-27.7,M,,*58
$GPGGA,073648.000,3213.9376,N,11057.9146,W,1,06,1.85,613.2,M,-27.7,M,,*53
$GPGGA,073649.000,3213.9365,N,11057.9147,W,1,06,1.85,613.4,M,-27.7,M,,*57
$GPGGA,073650.000,3213.9357,N,11057.9149,W,1,06,1.85,613.6,M,-27.7,M,,*52
$GPGGA,073651.000,3213.9345,N,11057.9152,W,1,06,1.85,613.8,M,-27.7,M,,*54
$GPGGA,073652.000,3213.9339,N,11057.9153,W,1,06,1.85,614.0,M,-27.7,M,,*52
$GPGGA,073713.000,3213.9324,N,11057.9152,W,1,07,1.14,614.6,M,-27.7,M,,*54
$GPGGA,073714.000,3213.9324,N,11057.9150,W,1,07,1.14,614.7,M,-27.7,M,,50
$GPGGA,073715.000,3213.9324,N,11057.9148,W,1,07,1.14,614.7,M,-27.7,M,,*58
$$GPGGA,073716.000,3213.9325,N,11057.9147,W,1,07,1.14,614.7,M,-27.7,M,,*55
$GPGGA,073717.000,3213.9326,N,11057.9145,W,1,07,1.14,614.7,M,-27.7,M,,*55
$GPGGA,073718.000,3213.9329,N,11057.9142,W,1,07,1.14,615.1,M,-27.7,M,,*55
$GPGGA,073719.000,3213.9334,N,11057.9140,W,1,07,1.14,615.6,M,-27.7,M,,*5D
$GPGGA,073724.000,3213.9365,N,11057.9109,W,1,07,1.14,618.3,M,-27.7,M,,*52
$GPGGA,073725.000,3213.9373,N,11057.9102,W,1,07,1.14,618.9,M,-27.7,M,,*55
$GPGGA,073726.000,3213.9380,N,11057.9093,W,1,07,1.14,619.4,M,-27.7,M,,*5F
$GPGGA,073727.000,3213.9385,N,11057.9088,W,1,07,1.14,619.8,M,-27.7,M,,*5D
$GPGGA,073728.000,3213.9382,N,11057.9073,W,1,07,1.14,620.2,M,-27.7,M,,*51
$GPGGA,073729.000,3213.9384,N,11057.9063,W,1,07,1.14,620.7,M,-27.7,M,,*52
$GPGGA,073730.000,3213.9385,N,11057.9051,W,1,07,1.14,621.1,M,-27.7,M,,*5D
$GPGGA,073753.000,3213.9569,N,11057.8994,W,1,07,1.33,640.4,M,-27.7,M,,*5A
$GPGGA,073754.000,3213.9574,N,11057.8994,W,1,07,1.33,640.8,M,-27.7,M,,*5D
$GPGGA,073755.000,3213.9577,N,11057.8993,W,1,07,1.33,641.2,M,-27.7,M,,*53
$GPGGA,073756.000,3213.9581,N,11057.8991,W,1,07,1.33,641.6,M,-27.7,M,,*5F
$GPGGA,073757.000,3213.9581,N,11057.8992,W,1,07,1.33,642.1,M,-27.7,M,,*59
$GPGGA,073758.000,3213.9582,N,11057.8994,W,1,07,1.33,642.6,M,-27.7,M,,*54
$GPGGA,073804.000,3213.9603,N,11057.8980,W,1,07,1.14,647.8,M,-27.7,M,,*53
$GPGGA,073806.000,3213.9610,N,11057.8975,W,1,07,1.14,648.9,M,-27.7,M,,*57
$GPGGA,073807.000,3213.9612,N,11057.8975,W,1,07,1.14,649.3,M,-27.7,M,,*5F
$GPGGA,073808.000,3213.9619,N,11057.8977,W,1,07,1.14,650.2,M,-27.7,M,,*50
$G$GPGGA,073809.000,3213.9621,N,11057.8978,W,1,07,1.33,650.7,M,-27.7,M,,*55
$GPGGA,073810.000,313.9617,N,11057.8981,W,1,07,1.33,651.3,M,-27.7,M,,*5B
$GPGGA,073822.000,3213.9593,N,11057.8993,W,1,07,1.14,657.7,M,-27.7,M,,*51
$GPGGA,073823.000,3213.9589,N,11057.8995,W,1,07,1.14,658.2,M,-27.7,M,,*57
$GPGGA,073824.000,3213.9585,N,11057.8998,W,1,07,1.14,658.6,M,-27.7,M,,*55
$GPGGA,073825.000,3213.9581,N,11057.8999,W,1,07,1.14,659.1,M,-27.7,M,,*57
$GPGGA,073826.000,3213.9577,N,11057.8999,W,1,07,1.14,659.6,M,-27.7,M,,*5A
$GPGGA,073827.000,3213.9571,N,11057.8998,W,1,07,1.14,659.9,M,-27.7,M,,*53
$GPGGA,073828.000,213.9564,N,11057.8997,W,1,07,1.14,60.3,M,-27.7M,,*57
$GPGGA,073839.000,3213.9492,N,11057.8970,W,1,07,1.14,665.7,M,-27.7,M,,*57
$GPGGA,073840.000,3213.9485,N,11057.8971,W,1,07,1.14,666.2,M,-27.7,M,,*58
$GPGGA,073841.000,3213.9478,N,11057.8973,W,1,07,1.14,666.6,M,-27.7,M,,*5D
$GPGGA,073842.000,3213.9471,N,11057.8975,W,1,07,1.14,667.0,M,-27.7,M,,*56
$GPGGA,073843.000,3213.9464,N,11057.8973,W,1,07,1.14,667.5,M,-27.7,M,,*50
$GPGGA,073844.000,3213.9461,N,11057.8975,W,1,07,1.14,668.0,M,-27.7,M,,*5E
$GPGGA,073845.000,32139457,N,11057.8975,W,1,07,1.14,668.,M,-27.7,M,,*5E
$GPGGA,073850.000,3213.9427,N,11057.8980,W,1,07,1.14,671.1,M,-27.7,M,,*5A
$GPGGA,073851.000,3213.9429,N,11057.8986,W,1,07,1.14,671.8,M,-27.7,M,,*5A
$GPGGA,073852.000,3213.9426,N,11057.8988,W,1,07,1.14672.3,M,-27.7,M,,*50
$GPGGA,073853.000,3213.9421,N,11057.8989,W,1,07,1.14,672.8,M,-27.7,M,,*5C
$GPGGA,073854.000,3213.9418,N,11057.8994,W,1,07,1.14,673.1,M,-27.7,M,,*55
$GPGGA,073855.000,3213.9414,N,11057.8999,W,1,07,1.14,673.2,M,-27.7,M,,*56
$GPGGA,073856.000,3213.9409,N,11057.9006,W,1,07,1.14,673.4,M,-27.7,M,,*51
$GPGGA,073901.000,3213.9416,N,11057.9023,W,1,07,1.14,675.4,M,-27.7,M,,*5D
$GPGGA,073902.000,3213.9422,N,11057.9027,W,1,07,1.14,676.0,M,-27.7,M,,*5A
$GPGGA,073903.000,3213.9428,N,11057.9030,W,1,07,1.14,676.5,M,-27.7,M,,*52
$GPGGA,073904.000,3213.9436,N,11057.9034,W,1,07,1.34,677.0,M,-27.7,M,,*58
$GPGGA,073905.000,3213.9446,N,11057.9036,W,1,07,1.34,677.3,M,-27.7,M,,*5F
$GPGGA,073906.000,3213.9449,N,11057.9036,W,1,07,1.34,677.7,M,-27.7,M,,*57
$GPGGA,073914.000,3213.9468,N,11057.9036,W,1,07,1.34,680.5,M,-27.7,M,,*5D
$GPGGA,073915.000,3213.9469,N,11057.9036,W,1,07,1.34,680.7,M,-27.7,M,,*5F
$GPGGA,073916.000,3213.9473,N,11057.9038,W,1,07,1.34,681.1,M,-27.7,M,,*5E
$GPGGA,073917.000,3213.9476,N,11057.9039,W,1,07,1.34,681.5,M,-27.7,M,,*5F
$GPGGA,073918.000,3213.9478,N,11057.9039,W,1,07,1.34,682.0,M,-27.7,M,,*58
$GPGGA,073919.000,3213.9481,N,11057.9041,W,1,07,1.34,682.5,M,-27.7,M,,*55
$GPGGA,07320.000,3213.9486,N,11057.9042,W,1,07,1.34,683.1M,-27.7,M,,*5E
$GPGGA,073926.000,3213.9542,N,11057.9063,W,1,07,1.15,689.0,M,-27.7,M,,*5A
$GPGGA,073927.000,3213.9552,N,11057.9063,W,1,07,1.3,690.1,M,-27.7,M,,*50
$GPGGA,073928.000,3213.9561,N,11057.9066,W,1,07,1.34,691.3,M,-27.7,M,,*59
$GPGGA,073929.000,3213.9571,N,11057.9068,W,1,06,1.91,692.5,M,-27.7,M,,*5C
$GPGGA,073930.000,3213.9579,N,11057.9069,W,1,06,1.91,693.7,M,-27.7,M,,*5E
$GPGGA,073931.000,3213.9585,N,11057.9068,W,1,06,1.91,694.8,M,-27.7,M,,*55
$GPGGA,073932.000,3213.9587,N,11057.9066,W,1,06,1.91,695.7,M,-27.7,M,,*54
$GPGGA,073939.000,3213.9618,N,11057.9072,W,1,06,1.91,702.5,M,-27.7,M,,*52
$GPGGA,073940.000,3213.9623,N11057.9072,W,1,06,1.91,703.6,M,27.7,M,,*56
$GPGGA,073941.000,3213.9625,N,11057.9071,W,1,06,1.91,704.5,M,-27.7,M,,*56
$GPGGA,073942.000,3213.9628,N,11057.9072,W,1,06,1.91,705.3,M,-27.7,M,,*5C
$GPGGA,073943.000,3213.9633,N,11057.9073,W,1,06,1.91,706.1,M,-27.7,M,,*57
$GPGGA,073944.000,3213.9634,N,11057.9071,W,1,06,1.91,706.8,M,-27.7,M,,*5C
$GPGGA,073949.000,3213.9627,N,11057.9044,W,1,07,1.15,710.9,M,-27.7,M,,*5E
$GPGGA,073950.000,3213.9627,N,11057.9045,W,1,07,1.15,711.8,M,-27.7,M,,*57
$GPGGA,073951.000,3213.9627,N,11057.9045,W,1,07,1.15,712.8,M,-27.7,M,,*55
$GPGGA,073952.000,3213.9627,N,11057.9045,W,1,07,1.15,713.6,M,-27.7,M,,*59
$GPGGA,073953.000,3213.9622,N,11057.9043,W,1,07,1.15,714.5,M,-27.7,M,,*5F
$GPGGA,073954.000,3213.9619,N,11057.9042,W,1,07,1.15,715.5,M,-27.7,M,,*50
$GPGGA,073955.000,3213.9617,N,11057.9042,W,1,07,1.15,716.6,M,-27.7,M,,*5F
$GPGGA,073958.000,3213.9606,N,11057.9038,W,1,07,1.15,719.7,M,-27.7,M,,*51
$GPGGA,073959.000,3213.9602,N,11057.9039,W,1,07,1.15,720.7,M,-27.7,M,,*5F
$GPGGA,074000.000,3213.9597,N,11057.9040,W,1,07,1.15,721.5,M,-27.7,M,,*5F
$GPGGA,074001.000,3213.9592,N,11057.9042,W,1,07,1.15,722.4,M,-27.7,M,,*5B
$GPGGA,074002.000,3213.9589,N,11057.9043,W,1,07,1.15,723.3,M,-27.7,M,,*55
$GPGGA,074003.000,3213.9585,N,11057.9041,W,1,07,1.15,724.2,M,-27.7,M,,*5C
$GPGGA,074008.000,3213.9581,N,11057.9052,W,1,07,1.15,729.2,M,-27.7,M,,*5C
$GPGGA,074009.000,3213.9580,N,11057.9052,W,1,07,1.15,730.0,M,-27.7,M,,*56
$GPGGA,074010.000,3213.9578,N,11057.9053,W,1,07,1.15,730.7,M,-27.7,M,,*5F
$GPGGA,074011.000,3213.9575,N,11057.9056,W,1,07,1.15,731.4,M,-27.7,M,,*54
$GPGGA,074012.000,3213.9572,N,11057.9059,W,1,07,1.15,732.1,M,-27.7,M,,*59
$GPGGA,074013.000,3213.9570,N,11057.9060,W,1,07,1.15,732.7,M,-27.7,M,,*56
$GPGGA,074017.000,3213.9565,N,11057.9065,W,1,07,1.15,735.2,M,-27.7,M,,*51
$GPGGA,074018.000,3213.9567,N,11057.9064,W,1,07,1.15,735.9,M,-27.7,M,,*56
$GPGGA,074019.000,3213.9570,N,11057.9064,W,1,07,1.15,736.1,M,-27.7,M,,*5A
$GPGGA,074021.000,3213.9574,N,11057.9070,W,1,07,1.15,737.2,M,-27.7,M,,*52
$GPGGA,074022.000,3213.9573,N,11057.9075,W,1,07,1.15,737.6,M,-27.7,M,,*57
$GPGGA,074023.000,3213.9571,N,11057.9080,W,1,07,1.15,738.0,M,-27.7,M,,*57
$GPGGA,074024.000,3213.9572,N,11057.9087,W,1,07,1.15,738.4,M,-27.7,M,,*50
$GPGGA,074025.000,3213.9571,N,11057.9093,W,1,07,1.15,738.7,M,-27.7,M,,*54
$GPGGA,074026.000,3213.9570,N,11057.9098,W,1,07,1.15,738.9,M,-27.7,M,,*53
$GPGGA,074027.000,3213.9569,N,11057.9102,W,1,07,1.15,739.2,M,-27.7,M,,*52
$GPGGA,074030.000,3213.9559,N,11057.9123,W,1,07,1.15,740.1,M,-27.7,M,,*59
$GPGGA,074031.000,3213.9558,N,11057.9131,W,1,07,1.15,740.4,M,-27.7,M,,*5F
$GPGGA,074032.000,3213.9556,N,11057.9136,W,1,07,1.15,740.6,M,-27.7,M,,*57
$GPGGA,074033.000,3213.9559,N,11057.9140,W,1,07,1.15,740.9,M,-27.7,M,,*57
$GPGGA,074034.000,3213.9564,N,11057.9146,W,1,07,1.15,741.2,M,-27.7,M,,*52
$GPGGA,074035.000,3213.9567,N,11057.9151,W,1,07,1.15,741.4,M,-27.7,M,,*50
$GPGGA,074036.000,3213.9571,N,11057.9155,W,1,07,1.15,741.7,M,-27.7,M,,*53
$GPGGA,074040.000,3213.9582,N,11057.9201,W,1,07,1.15,741.9,M,-27.7,M,,*52
$GPGGA,074042.000,3213.9580,N,11057.9212,W,1,07,1.15,742.5,M,-27.7,M,,*5F
$GPGGA,074043.000,3213.9578,N,11057.9214,W,1,07,1.15,742.8,M,-27.7,M,,*52
$GPGGA,074044.000,3213.9573,N,11057.9214,W,1,07,1.15,743.1,M,-27.7,M,,*56
$GPGGA,074045.000,3213.9564,N,11057.9213,W,1,07,1.15,743.4,M,-27.7,M,,*53
$GPGGA,074048.000,3213.9552,N,11057.9230,W,1,07,1.15,744.0,M,-27.7,M,,*59
$GPGGA,074049.000,3213.9553,N,11057.9244,W,1,07,1.15,744.1,M,-27.7,M,,*5B
$GPGGA,074050.000,3213.9551,N,11057.9248,W,1,07,1.15,744.4,M,-27.7,M,,*58
$GPGGA,074051.000,3213.9551,N,11057.9250,W,1,07,1.15,744.7,M,-27.7,M,,*53
$GPGGA,074052.000,3213.9553,N,11057.9251,W,1,07,1.15,744.7,M,-27.7,M,,*53
$GPGGA,074053.000,3213.9553,N,11057.9248,W,1,07,1.15,744.6,M,-27.7,M,,*5B
$GPGGA,074056.000,3213.9557,N,11057.9226,W,1,07,1.15,744.6,M,-27.7,M,,*52
$GPGGA,074057.000,3213.9557,N,11057.9219,W,1,07,1.15,744.7,M,-27.7,M,,*5E
$GPGGA,074059.000,3213.9557,N,11057.9201,W,1,07,1.15,744.9,M,-27.7,M,,*57