$GPVTG,93.46,T,,M,0.42,N,0..2,3.8,N,058419,W,1,03,2.74,177.7,M,-27.7,M,,*5F
$GSA,2,02,12,06,,,,,,,,,,2.92,2.74,1.00*0D
$RM072706.219,A,3213.8696,N,11057.8419,W,0.44,92.27,140118,,,A*45
$VT92.27,T,,M,0.44,N,0.82,K,A*09
$GPGGA,072708.000,3213.8695,N,11057.8416,W,1,03,2.75,177.7,M,-27.7,M,,*56
$GS,A,2,02,12,06,,,,,,,,,,2.92,2.75,1.00*0C
$GS2,,05,02,74,19,15,06,67,046,21,12,42,323,20,9,39,048,*7D
$G,2,2,05,17,24,062,*48
$M072708.000,A,3213.8695,N,11057.8416,W,0.41,94.82,140118,,,A*41
$VG.82,T,,M,0.41,N,0.7,K,A*0D
$GPGGA,072709.000,3213.8695,N,11057.8416,W,1,03,2.74,177.7,M,-27.7,M,,*56
$P12,06,,,,,,,,,,2.92,2.74,1.00*0D
$P072709.000,A,3213.8695,N,11057.8416,W,0.35,102.39,140118,,,A*7D
$PV102.39,T,,M,0.35,N,0.66,K,A*32
$GPGGA,072710.000,3213.8694,N,11057.8414,W,1,03,2.75,177.7,M,-27.7,M,,*5C
$GGA,2,02,12,06,,,,,,,,,,2.92,2.75,1.00*0C
$P,072710.000,A,3213.8694,N,11057.8414,W,0.42,107.09,140118,,,A*70
$GV107.09,T,,M,0.42,N,0.79,K,A*3A
$GPGGA,072711.000,3213.8694,N,11057.8411,W,1,03,2.75,177.7,M,-27.7,M,,*58
$PA,2,02,12,06,,,,,,,,,,2.92,2.75,1.00*0C
$RM072711.000,A,3213.8694,N,11057.8411,W,0.51,107.23,140118,,,A*7E
$VT107.23,T,,M,0.51,N,0.95,K,A*32
$GPGGA,072712.000,3213.8694,N,11057.8407,W,1,03,2.75,177.7,M,-27.7,M,,*5C
$GSA,2,02,12,06,,,,,,,,,,2.92,2.75,1.00*0C
$RM072712.000,A,3213.8694,N,11057.8407,W,0.62,106.98,140118,,,A*7B
$VT106.98,T,,M,0.62,N,1.15,K,A*3A
$PA,072712.209,3213.8695,N,11057.8404,W,1,03,2.75,177.7,M,-27.7,M,,*55
$GSA,2,02,12,06,,,,,,,,,,2.92,2.75,1.00*0C
$GPGSA,A,3,02,12,06,17,,,,,,,,,2.29,2.08,0.97*0E
$GPM72812.000,A,3213.8705,N,11057.8571,W,0.15,249.34,140118,,,A*73
$PV249.34,T,,M,0.15,N,0.27,K,A*34
$GPGGA,072813.000,3213.8705,N,11057.8571,W,1,04,2.08,180.9,M,-27.7,M,,*50
$PG,A,3,02,12,06,17,,,,,,,,,2.30,2.08,0.97*06
$PG,2,1,06,02,75,219,22,06,67,046,18,48,45,217,26,12,43,323,23*70
$PG2,2,06,19,39,048,23,17,24,062,28*7E
$P,072813.000,A,3213.8705,N,11057.8571,W,0.17,253.69,140118,,,A*73
$PV253.69,T,,M,0.17,N,0.31,K,A*32
$PGGA,072814.000,3213.8705,N,11057.8570,W,1,04,2.08,181.0,M,-27.7,M,,*5E
$PA,3,02,2,06,17,,,,,,,,,2.30,2.08,0.97*06
$GPRMC,072814.000,A,3213.8705,N,11057.8570,W,0.15,257.42,140118,,,A*7A
$G2,,M,0.15,N,0.28,K,A*35
$GPGGA,072815.000,313.8705,N,11057.8570,W,1,04,2.08,181.0,M,-27.7,M,,*5F
$GSA,3,02,12,06,17,,,,,,,,,2.30,2.08,0.97*06
$R,072815.000,A,3213.8705,N,11057.8570,W,0.15,253.84,140118,,,A*75
$VT253.84,T,,M,0.15,N,0.27,K,A*34
$GPGGA,072816.000,3213.8704,N,11057.8570,W,1,04,2.08,181.0,M,-27.7,M,,*5D
$SA,3,02,12,06,17,,,,,,,,,2.30,2.08,0.97*06
$RC2816.000,A,3213.8704,N,11057.8570,W,0.12,243.69,140118,,,A*72
$PV243.69,T,,M,0.12,N,0.22,K,A*34
$GPGGA,072938.000,3213.8657,N,11057.8564,W,1,05,2.01,184.9,M,-27.7,M,,*56
$G,A,3,02,12,06,19,17,,,,,,,,2.23,2.01,0.97*05
$GS2,1,06,02,76,221,26,06,66,045,20,51,52,173,,12,43,323,25*78
$GS2,2,06,19,39,049,20,17,23,063,20*72
$RM072938.000,A,3213.8657,N,11057.8564,W,0.34,283.39,140118,,,A*70
$VT283.39,T,,M,0.34,N,0.64,K,A*3B
$GPGGA,072939.000,321.8658,N,11057.8566,W,1,05,2.01,184.9,M,-27.7,M,,*5
$GSA,0619,17,,,,,,,,2.23,2.01,0.9*05
$PR,02939.000,A,3213.8658,N,11057.8566,W,0.36,292.96,140118,,,A*7B
$P292.96,T,,M,0.36,N,0.68,K,A*30
$GPGGA,072940.000,3213.8659,N,11057.8567,W,1,05,2.01,185.0,M,-27.7,M,,*5C
$P,A,3,02,12,06,19,17,,,,,,,,2.23,2.01,0.97*05
$P,072940.000,A,3213.8659,N,1105.8567,W,0.39,296.69,140118,,,A*7E
$P,296.69,T,,M,0.39,N,0.72,K,A*30
$GPGGA,072941.000,3213.8660,N,11057.8568,W,1,05,2.01,185.0,M,-27.7,M,,*58
$GGA,3,02,12,06,19,17,,,,,,,,2.23,2.01,0.97*05
$PR072941.000,A,3213.8660,N,11057.8568,W,0.42,301.23,140118,,,A*77
$PG01.23,T,,M,0.42,N,0.77,K,A*38
$GPGGA,073131.000,3213.8448,N,11057.9570,W,1,06,1.80,231.1,M,-27.7,M,,*52
$GS,A,3,02,12,06,19,17,24,,,,,,,2.02,1.80,0.92*0F
$GPRMC,07313,,,,27,2.06,0.97*00
$GPRMC,073135.000,A,3213.8447,24,,2.28,2.06,0.97*0F
$GPRMC0731174,,,,,,,2.02,1.80,0.92*0F
$GPGSV,3,1,09,02,76,222,$GPGGA,073147.000,3213.8593,N,11057.963$GPGGA,073151.000,3213.8611,N,11057.9649,W,1,06,2.06,271.5,M,-27.7,M,,*5E
$GS,A,3,02,12,06,19,17,24,,,,,,,2.28,2.06,0.97*0F
$GPRMC,07315,*
PA,3012,06,19,17,24,,,,,,,2.03,1.80,0.92*0E
$G,7
PGSA,A,3,02,1
GP,A,3,02,12,06,19,17,24,,,,,,,2.03,1.80,0.9,2.03,1.80,0.92*0E
$GPGGA,073209.000,3213.9069,N,11057.9377,W,1,06,1.80,337.0,M,-27.7,M,,*5B
$GA,3,02,12,06,19,17,24,,,,,,,2.03,1.80,0.92*0E
$GPRMC,073209.,W,1.80,343.3,M,-27.7,M,,*5B
$GPGSA,A,3,02,12,06SA,3,12,06,19,17,24,,,,,,,2.03,1.81,0.2*0F
150M,-27.7,M,,*53
$GPGSA,A,3,02,12,06,19,17,24,,,,,,,2.03,1.8197,,,,,,,2.03,1.81,.5,M,-27.7,M,,*50
$GA,3,02,12,06,19,17,24,,,,,,,2.03,1.81,0.92*0F
$GPRMC,073229.GT2.27,T,,M,0.35,N,0.65,K,A*3B
$GPGGA,073234.000$GPGGA,073238.000,3213.9207,N,11057.9394,W,1,0$GPGGA,073242.000,3213.9227,N,11057.9386,W,1,07,1.81,388.9,M,-27.7,M,,*5F
$G,A,3,02,12,06,19,17,24,05,,,,,,2.03,1.81,0.92*0A
$GPRMC,0732*5
PGSA,A,3,02,12,06,19,17,24,05,,,,,,2.03,1.81,0.90226,19,17,24,0$GPGGA,073254.000,3213.9288,N,11057.9386,W,1,07,1.81,408.6,M,-27.7,M,,*5D
$G,A,3,02,12,06,19,17,24,05,,,,,,2.03,1.81,0.92*0A
$GPRMC,073210,-27.7,M,,*5F
$GPGSA,A,3,02,12,06,19,17,24,05,,,,,1,W,07,1.13,424.1,M,-27.7,M
$GA3,02,12,06,19,17,24,05,,,,,,2.04,1.82,0.92*0E
$GPRMC,073306212,19,17,24,05,,,,,,2.04,1.82,0.92*0E
$GPRMC,073,1.841.7,M,-27.7,M,,*53
$GPGSA,A,3,02,12,06,19,17,24M,*
$GPGSA,A,3,02,12,06,19,17,24,0532.0,A,3213.9645,N,11057.9338,W,,A,3,02,12,06,19,17,24,05,,,,,,1.44,1.13,0.89*0B
$R.000,A,3213.9787,N,11057.9365,W,0.08,284.50,140118,,,A*78
$G10773,W,0.15,320.52,140118,,,A*7F
$GPVTG,320.52,T,,M,0.15,N,9,M,0.19,N,0.35,K,A*3F
$GPGGA,073335GV,,10,19,38,051,23,17,22,064,19,05,13,170,34,25,01,N,0.40,K,A*37
$GPGGA,073343.000,3213.9902,N,11057.9389,W,1,07,1.13,501.8,M,-2$GPGGA,073347.000,3213.9909,N,11057.9398,W,1,07,1.13,505.9,M,-27.7,M,,*5B
$G,A,3,02,12,06,19,17,24,05,,,,,,1.44,1.13,0.89*0B
$GPRMC,0733D$GSA,A,3,02,12,06,19,17,24,05,,,,,,1.44,1.13,0.89*000,A,3213.9911,N,11057.9407,W,0.10,314.51,140118,,,A*7E
$V,314.51,T,,M,0.10,N,0.19,K,A*36
$GPGGA,073403.000,3213.9914,N,11057.9414,W,1,07,1.13,514.6,M,-27.7,M,,*5C
$G,A,3,02,12,06,19,17,24,05,,,,,,1.44,1.13,0.89*0B
$GSV1,10,02,77,225,20,06,64,043,13,51,52,173,27,12,45,324,18*73
$P,3,2,10,24,41,252,29,19,37,051,25,17,22,065,22,05,13,170,33*7F
$P,3,3,10,25,08,315,,28,03,127,18*74
$P,073403.000,A,3213.9914,N,11057.9414,W,0.29,300.40,140118,,,A*72
$P,300.40,T,,M,0.29,N,0.53,K,A*37
$GPGGA,073404.000,3213.9915,N,11057.9415,W,1,07,1.13,514.6,M,-27.7,M,,*5B
$P,A,3,02,12,06,19,17,24,05,,,,,,1.44,1.13,0.89*0B
$P,073404.000,A,3213.9915,N,11057.9415,W,0.25,295.97,140118,,,A*7E
$P,295.97,T,,M,0.25,N,0.46,K,A*38
$PGGA,73405.00,3213.9915,N,11057.9415,W,1,07,1.13,514.6,M,-27.7,M,,*5A
$GSA,3,02,12,06,19,17,24,05,,,,,,1.44,1.13,0.9*0B
$R07305.000,A,3213.9915,N,11057.9415,W,0.23,276.53,10118,,,A*7C
$V,276.53,T,,M,0.23,N,0.42,K,A*3F
$GPGGA,073406.000,3213.9915,N,11057.9416,W,1,07,1.13,514.6,M,-27.7,M,,*5A
$G,A,3,02,12,06,19,17,24,05,,,,,,1.44,1.13,0.89*0B
$M073406.000,A,3213.9915,N,11057.9416,W,0.22,267.24,140118,,,A*7D
$V,267.24,T,,M,0.22,N,0.41,K,A*3D
$GPGGA,073407.000,3213.9915,N,11057.9417,W,1,06,1.15,514.6,M,-27.7,M,,*5D
$GA3,02,12,19,17,24,05,,,,,,,1.47,1.15,0.92*02
$P000,A,3213.9915,N,11057.9417,W,0.21,270.99,140118,,,A*7E
$P270.99,T,,M,0.21,N,0.40,K,A*3F
$GPGGA,073521.000,3213.9699,N,11057.9216,W,1,07,1.14,552.8,M,-27.7,M,,*58
$G,A,3,02,12,06,19,17,24,05,,,,,,1.45,1.14,0.89*0D
$R,073521.000,A,3213.9699,N,11057.9216,W,0.92,179.47,140118,,,A*76
$V,179.47,T,,M,0.92,N,1.71,K,A*3D
$GPGGA,073522.000,3213.9649,N,11057.9208,W,1,07,1.14,556.8,M,-27.7,M,,*5D
$G,A,3,02,12,06,19,17,24,05,,,,,,1.45,.14,0.89*0D
$RMC3522.000,A,3213.9649,N,11057.9208,W,1.30,182.03,140118,,,A*7A
$P,182.03,T,,M,1.30,N,2.41,K,A*30
$GPGGA,073523.000,3213.9630,N,11057.9205,W,1,07,1.14,558.2,M,-27.7,M,,*5B
$GGA,3,02,12,06,19,17,24,05,,,,,,1.45,1.14,0.89*0D
$P,3,1,10,02,78,226,32,06,64,043,20,12,46,324,18,24,41,251,24*7F
$G3,2,10,19,37,052,17,17,22,065,16,05,14,170,13,25,09,315,*7B
$P,,3,10,28,03,127,13,47,,,*44
$P,073523.000,A,3213.9630,N,11057.9205,W,1.39,180.70,140118,,,A*77
$PV180.70,T,,M,1.39,N,2.58,K,A*37
$GPGGA,073524.000,3213.9612,N,11057.9201,W,1,07,1.14,559.7,M,-27.7,M,,*5C
$PGA,,17,24,05,,,,,,1.45,1.14,0.89*0D
$R,073524.000,A,3213.9612,N,11057.9201,W,1.50,179.61,140118,,,A*7D
$V,179.61,T,,M,1.50,N,2.78,K,A*3C
$GPGGA,073525.000,3213.9594,N,11057.9197,W,1,07,1.14,560.8,M,-27.7,M,,*59
$GSA,3,02,12,06,19,17,24,05,,,,,,1.45,1.14,0.89*0D
$R,073525.000,A,3213.9594,N,11057.9197,W,1.57,177.77,140118,,,A*73
$V,177.77,T,,M,1.57,N,2.91,K,A*35
$GPGGA,073526.000,3213.9575,N,11057.9193,W,1,07,1.14,562.0,M,-27.7,M,,*5B
$GA3,02,12,06,19,17,24,05,,,,,,1.45,1.14,0.89*0D
$P,073526.000,A,3213.9575,N,11057.9193,W,1.68,175.50,140118,,,A*70
GV17.50,T,,M,1.68,N,3.11,K,A*37
$GPGGA,073527.000,3213.9559,N,11057.9192,W,1,07,1.14,563.2,M,-27.7,M,,*56
$PG,A,3,02,12,06,19,17,24,05,,,,,,1.45,1.14,0.89*0D
$PR073527.000,A,3213.9559,N,11057.9192,W,1.75,175.55,140118,,,A*77
$GPGGA,073536.000,3213.9432,N,11057.9078,W,1,07,1.14,581.2,M,-27.7,M,,*53
$3,12,06,19,17,24,05,,,,,,1.45,1.14,0.89*0D
$P,073536.000,A,3213.9432,N,11057.9078,W,1.72,160.98,140118,,,A*7C
$PTG60.98,T,,M,1.72,N,3.19,K,A*34
$GPGA,073537.000,3213.9419,N,11057.9077,W,1,07,1.1,582.7,M,-27.7,M,,*52
$G,,3,02,12,06,19,17,24,05,,,,,,1.45,1.14,0.89*0D
$R,7337.000,A,3213.9419,N,11057.9077,W,1.0,161.24,14018,,,A*70
$V,161.24,T,,M,1.80,N,3.33,K,A*37
$GPGGA,073538.000,3213.9409,N,11057.9061,W,1,07,1.14,584.9,M,-27.7,M,,*53
$G,A,3,02,12,06,19,7,24,05,,,,,,1.45,1.14,0.89*0D
$GS3,1,10,02,78,227,33,06,64,043,21,12,46,324,22,24,41,251,28*7B
$G,3,2,10,19,37,052,16,17,22,065,19,05,14,170,15,25,09,315,*73
$GSV3,10,28,03,127,,50,,,*40
$P,073538.000,A,3213.9409,N,11057.9061,W,1.79,154.12,140118,,,A*7C
$V154.12,T,,M,1.79,N,3.32,K,A*33
$GPGGA,073539.000,3213.9401,N,11057.9059,W,1,07,1.14,586.2,M,-27.7,M,,*58
$3,12,06,19,17,24,05,,,,,,1.45,1.14,0.89*0D
$P,073539.000,A,3213.9401,N,11057.9059,W,1.72,150.60,140118,,,A*74
$P,50.60,T,,M,1.72,N,3.20,K,A*3A
$GPGGA,073540.000,3213.9394,N,11057.9062,W,1,07,1.14,587.0,M,-27.7,M,,*56
$P,A,3,02,12,06,19,17,24,05,,,,,,1.45,1.14,0.89*0D
$P,073540.000,A,3213.9394,N,11057.9062,W,1.69,151.11,140118,,,A*74
$PG51.11,T,,M,1.69,N,3.13,K,A*37
$GPGGA,073541.000,3213.9390,N,11057.9061,W,1,07,1.14,587.7,M,-27.7,M,,*57
$GSA,3,02,12,06,19,17,24,05,,,,,,1.45,1.14,0.89*0D
$R,073541.000,A,3213.9390,N,11057.9061,W,1.64,150.49,140118,,,A*73
$VT150.49,T,,M,1.64,N,3.03,K,A*37
$GPGGA,073542.000,3213.9387,N,11057.901,W,1,07,1.14,588.2,M,-27.7,M,,*58
$GA,3,02,12,06,19,17,24,05,,,,,,1.45,1.14,0.89*0D
$R,073542.000,A,3213.9387,,11057.9061,W,1.59,149.32,140118,,,A*7C
$V2,1.59,N,2.5,K,A*33
$GPGGA,073551.000,3213.9348,N,11057.9072,W,1,07,1.14,594.2,M,-27.7,M,,*56
$P,A,3,02,12,06,19,17,24,05,,,,,,1.45,1.14,0.89*0D
$P,073551.000,A,3213.9348,N,11057.9072,W,1.27,147.55,140118,,,A*79
$P,147.55,T,,M,1.27,N,2.36,K,A*3C
$GPGGA,073552.000,3213.9345,N,11057.9073,W,1,0,1.14,594.8,M,-27.7,M,,*53
$P,A,3,02,12,06,19,17,24,05,,,,,,1.45,1.14,0.89*D
$P,73552.000,A,3213.9345,N,11057.9073W,1.6,147.90,140118,,,A*7E
$GV147.90,T,,M,1.26,N,2.34,K,A*36
$GPGGA,073553.000,3213.9342,N,11057.9073,W,1,07,1.14,595.3,M,-27.7,M,,*5F
$PSA,3,02,12,06,19,17,24,05,,,,,,1.45,1.14,0.89*0D
$GS3,1,10,02,78,227,25,06,64,043,18,12,46,324,20,24,41,251,18*77
$G,3,2,10,19,37,052,18,17,21,065,18,05,14,170,13,25,09,315,*79
$G,3,3,10,28,03,127,,42,,,*43
$R000,A,3213.9342,N,11057.9073,W,1.25,148.58,140118,,,A*70
$V,148.58,T,,M,1.25,N,2.32,K,A*38
$GPGGA,073554.000,3213.9339,N,11057.9072,W,1,07,1.14,595.8,M,-27.7,M,,*5E
$GA,3,02,12,06,19,17,24,05,,,,,,1.45,1.14,0.89*0D
$34.000,A,3213.9339,N,11057.9072,W,1.26,147.59,140118,,,A*77
$VG7.59,T,,M,1.26,N,2.34,K,A*33
$GPGGA,073555.000,3213.9336,N,11057.9070,W,1,07,1.14,596.4,M,-27.7,M,,*5D
$P,A,3,02,12,06,19,17,24,05,,,,,,1.45,1.14,0.89*0D
$P,073555.000,A,3213.9336,N,11057.9070,W,1.29,146.53,140118,,,A*7F
$P,146.53,T,,M,1.29,N,2.39,K,A*3A
$GPGGA,073556.000,3213.9334,N,11057.9066,W,1,07,1.14,597.1,M,-27.7,M,,*5F
$PA,3,02,12,06,19,17,24,05,,,,,,1.45,1.14,0.89*0D
$P,073556.000,A,3213.9334,N,11057.9066,W,1.29,144.08,140118,,,A*75
$P,144.08,T,,M,1.29,N,2.39,K,A*36
$GPGGA,073557.000,3213.933,N,11057.9060,W,1,07,1.14,97.7,M,-27.7M,,*5E
$G,A,3,02,12,06,19,17,24,05,,,,,,1.45,1.14,0.90*05
$R,073557.000,A,3213.9334,N,1105.9060,W,1.29,138.79,140118,,A*7F
$GPGGA,073602.000,3213.9351,N,11057.9036,W,1,07,1.14,601.8,M,-27.7,M,,*5E
$G,A,3,02,12,06,19,17,24,05,,,,,,1.45,1.14,0.90*05
$R,073602.000,A,3213.9351,N,11057.9036,W,1.11,98.58,140118,,,A*4F
$V,98.58,T,,M,1.11,N,2.06,K,A*04
$GPGGA,073603.000,3213.9352,N,11057.9033,W,1,07,1.14,602.5,M,-27.7,M,,*57
$GSA,3,02,12,06,19,17,24,05,,,,,,1.45,1.14,0.90*05
$GV,,10,02,79,228,26,06,64,043,9,12,46,324,19,24,41,251,20*79
$PG3,2,10,19,37052,18,17,21,065,18,05,14,170,18,25,09,315,*72
$G3,3,10,28,03,127,37,,,*41
$P,073603.000,A,3213.9352,,11057.9033,W,1.06,100.53,140118,,,A*75
$P$GPGGA,073604.000,3213.9351,N,11057.9032,W,1,07,1.14,603.2,M,-27.7,M,,*54
$P,A,3,02,12,06,19,17,24,05,,,,,,1.45,1.14,0.90*05
$P,073604.000,A,3213.9351,N,11057.9032,W,1.00,104.27,140118,,,A*71
$P,104.27,T,,M,1.00,N,1.84,K,A*31
$GPGGA,073605.000,3213.9350,N,11057.9034,W,1,07,1.14,603.9,M,-27.7,M,,*59
$PA3,02,12,06,19,17,24,05,,,,,,1.45,1.14,0.90*05
$R,073605.000,A,3213.9350,N,11057.9034,W,0.84,111.13,140118,,,A*79
$V,111.13,T,,M,0.84,N,1.56,K,A*30
$GPGGA,073606.000,3213.9348,N,11057.9038,W,1,07,1.14,604.5,M,-27.7,M,,*54
$G,A,3,02,12,06,19,17,24,05,,,,,,1.45,1.14,0.90*05
$R,073606.000,A,3213.9348,N,11057.9038,W,0.70,121.38,140118,,,A*7E
$V,121.38,T,,M,0.70,N,1.30,K,A*31
$GPGGA,073607.000,3213.9348,N,11057.9043,W,1,07,1.14,605.0,M,-27.7,M,,*5D
$GA,02,12,06,19,17,24,05,,,,,,1.45,1.14,0.90*05
$PR00,A,3213.9348,N,11057.9043,W,0.56,129.35,140118,,,A*72
$V129.35,T,,M,0.56,N,1.03,K,A*30
$GPGGA,073608.000,3213.9346,N,11057.9048,W,1,07,1.14,605.4,M,-27.7,M,,*53
$GA,3,02,12,06,19,17,24,05,,,,,,1.5,1.14,0.9*05
$GPG,1,09,02,79,228,25,06,63,043,18,2,46,324,18,24,41,251,17*7
$PG3,2,09,19,37,052,15,17,21,065,14,05,14,170,12,25,09,315,*71
$GPGGA,073614.000,3213.9336,N,11057.9056,W,1,07,1.14,606.0,M,-27.7,M,,*51
$P,A,3,02,12,06,19,17,24,05,,,,,,1.45,1.14,0.90*05
$PMC73614.000,A,3213.9336,N,11057.9056,W,0.37,194.79,140118,,,A*74
$V,194.79,T,,M,0.37,N,0.69,K,A*34
$GPGGA,073615.000,3213.9335,N,11057.9056,W,1,07,1.14,606.0,M,-27.7,M,,*53
$G,A,3,02,12,06,19,17,24,05,,,,,,1.45,1.14,0.90*05
$R,073615.000,A,3213.9335,N,11057.9056,W,0.38,212.95,140118,,,A*76
$V,12.95,T,,M,0.38,N,0.70,K,A*3C
$GPGGA,073616.000,3213.9334,N,11057.9057,W,1,07,1.14,606.0,M,-27.7,M,,*50
$,106,19,17,24,05,,,,,,1.45,1.14,0.90*05
$M073616.000,A,3213.9334,N,11057.9057,W,0.37,219.89,140118,,,A*7C
$VG9.89,T,,M,0.37,N,0.69,K,A*3D
$GPGGA,073617.000,3213.9333,N,11057.9058,W,1,07,1.14,606.0,M,-27.7,M,,*59
$P,A,3,02,12,06,19,17,24,05,,,,,,1.45,1.14,0.90*05
$P073617.000,A,3213.9333,N,11057.9058,W,0.40,225.85,140118,,,A*76
$P,225.85,T,,M,0.40,N,0.74,K,A*32
$GPGGA,073618.000,3213.9332,N,11057.9059,W,1,07,1.14,606.0,M,-27.7,M,,*56
$PG,A,3,02,12,06,19,17,24,05,,,,,,1.45,1.14,0.90*05
$PG3,1,10,02,79,228,27,06,63,043,15,12,46,324,18,24,41,251,20*71
$P,3,2,10,19,37,052,16,17,21,065,16,05,14,170,12,25,09,315,*78
$PSV,3,10,28,03,127,,40,,,*41
$R,073618.000,A,3213.9332,N,11057.9059,W,0.48,238.63,140118,,,A*75
$V,238.63,T,,M,0.48,N,0.88,K,A*3D
$GPGGA,073619.000,3213.9332,N,11057.9060,W,1,07,1.14,606.1,M,-27.7,M,,*5C
$G,A,3,02,12,06,19,17,24,05,,,,,,1.45,1.14,0.90*05
$GRM073619.000,A,3213.9332,N,11057.9060,W,0.60,245.90,140118,,,A*72
$V,245.90,T,,M,0.60,N,1.11,K,A*30
$GPGGA,073620.000,323.9331,N,11057.9065,W,1,07,1.14,606.4,M,-27.7,M,,*5
$G,A,3,02,12,06,19,17,24,05,,,,,,1.45,1.14,0.90*05
$RC3620.000,A,3213.9331,N,11057.9065,W,0.62,250.19,140118,,,A*79
!ÒuM±A,3,02,12,06,19,17,24,,,,,,,2.06,1.85,0.92*0E
$P,073626.000,A,3213.9349,N,11057.9053,W,0.57,275.31,140118,,,A*7E
$P,275.31,T,,M,0.57,N,1.05,K,A*39
$GPGGA,073627.000,3213.9355,N,11057.9051,W,1,06,1.85,609.2,M,-27.7,M,,*57
$P,A,3,02,12,06,19,17,24,,,,,,,2.06,1.85,0.92*0E
$P,073627.000,A,3213.9355,N,11057.9051,W,0.58,287.70,140118,,,A*77
$P,287.70,T,,M,0.58,N,1.07,K,A*3C
$GPGGA,073628.000,3213.9359,N,11057.9054,W,1,06,1.85,609.5,M,-27.7,M,,*56
$PS,302,0619,17,24,,,,,,,2.06,1.85,092*0E
$GS3,1,10,02,79,228,27,06,63,043,15,12,46,32417,24,41,251,24*7A
$GS,3,2,10,19,37,052,16,17,21,065,14,05,14,170,,25,09,315,*79
$GS,3,3,10,28,02,128,,44,,,*4B
$RM,73628.000,A,3213.9359,N,11057.9054,W,0.69,286.18,140118,,,A*7C
$GT286.18,T,,M,0.69,N,1.28,K,A*3C
$GPGGA,073629.000,3213.9362,N,11057.9057,W,1,06,1.85,609.9,M,-27.7,M,,*50
$GSA,3,02,12,06,19,17,24,,,,,,,2.06,1.85,0.92*0E
$RM,073629.000,A,3213.9362,N,11057.9057,W,0.80,282.67,140118,,,A*7D
$VG.67,T,,M,0.80,N,1.49,K,A*30
$GPGGA,073630.000,3213.9363,N,11057.9059,W,1,06,1.85,610.2,M,-27.7,M,,*54
$PG,A,3,02,12,06,19,17,24,,,,,,,2.06,1.85,0.92*0E
$0.282.78,140118,,,A*77
$GV282.78,T,,M,0.83,N,1.53,K,A*36
$GPGGA,073631.000,3213.9366,N,11057.9059,W,1,06,1.85,610.4,M,-27.7,M,,*56
$P,A,3,02,12,06,19,17,24,,,,,,,2.06,1.85,0.92*0E
$R073631.000,A,3213.9366,N,11057.9059,W,0.80,284.61,140118,,,A*7E
$P,284.61,T,,M,0.80,N,1.48,K,A*31
$GPGGA,073632.000,3213.9370,N,11057.9059,W,1,06,1.85,610.5,M,-27.7,M,,*53
$GGA,3,02,12,06,19,17,24,,,,,,,2.06,1.85,0.92*0E
$RM,073632.000,A,3213.9370,N,11057.9059,W,0.77,287.03,140118,,,A*75
$VT287.03,T,,M,0.77,N,1.43,K,A*35
$GPGGA,073636.000,3213.9377,N,11057.9040,W,1,06,1.85,611.4,M,-27.7,M,,*58
$GS,A,3,02,12,06,19,17,24,,,,,,,2.07,1.85,0.92*0F
$R,073636.000,A,3213.9377,N,11057.9040,W,0.57,295.07,140118,,,A*7B
$V,295.07,T,,M,0.57,N,1.05,K,A*32
$GPGGA,073637.000,3213.9376,N,11057.9035,W,1,06,1.85,611.5,M,-27.7,M,,*5B
$GSA,3,02,12,06,19,17,24,,,,,,,2.07,1.85,0.92*0F
$RC637.000,A,3213.9376,N,11057.9035,W,.48,298.29,140118,,,A*76
$PV298.29,T,,M,0.48,N,0.89,K,A*38
$GPGGA,073638.000,3213.9378,N,11057.9031,W,1,06,1.85,611.7,M,-27.7,M,,*5C
$P,A,3,02,12,06,19,17,24,,,,,,,2.07,1.85,0.92*0F
$P,3,1,11,02,79,228,25,06,63,043,20,51,52,173,,1246,324,20*7E
$G3,2,11,24,41,251,20,19,37,052,16,17,21,065,16,05,14,170,*74
$P,3,3,11,25,09,315,,28,02,128,,29,01,269,*44
$P,073638.000,A,3213.9378,N,11057.9031,W,0.44,308.22,140118,,,A*7C
$PV308.22,T,,M,0.44,N,0.82,K,A*3C
$GPGGA,073639.000,3213.9386,N,11057.9034,W,1,06,1.85,611.4,M,-27.7,M,,*5A
$,32,12,06,19,17,24,,,,,,,2.07,1.85,0.92*0F
$R,073639.000,A,3213.9386,N,11057.9034,W,0.66,324.49,140118,,,A*7A
$VTT,,M,0.66,N,1.22,K,A*34
$GPGGA,073640.000,3213.9392,N,11057.9039,W,1,06,1.85,611.5,M,-27.7,M,,*5D
$G,A,3,02,12,06,19,17,24,,,,,,,2.07,1.85,0.92*0F
$R,073640.000,A,3213.9392,N,11057.9039,W,0.76,324.91,140118,,,A*78
$V,324.91,T,,M,0.76,N,1.41,K,A*35
$GPGGA,073641.000,3213.9392,N,11057.9056,W,1,06,1.85,611.8,M,-27.7,M,,*58
$GA3,02,12,06,19,17,24,,,,,,,2.07,1.85,0.92*0F
$P,073641.000,A,3213.9392,N,11057.9056,W,0.86,313.54,140118,,,A*72
$GPV313.54,T,,M,0.86,N,1.59,K,A*3E
$GPGGA,073642.000,3213.9394,N,11057.9067,W,1,06,1.85,612.0,M,-27.7,M,,*54
$P,A,3,02,12,06,19,17,24,,,,,,,2.07,1.85,0.92*0F
$P,073642.000,A,3213.9394,N,11057.9067,W,0.92,310.57140118,,,A*70
$GPGGA,073646.000,3213.9380,N,11057.9116,W,1,06,1.85,612.7,M,-27.7,M,,*55
$P,A,3,02,12,06,19,17,24,,,,,,,2.07,1.85,0.92*0F
$P,073646.000,A,3213.9380,N,11057.9116,W,1.09,285.72,140118,,,A*7F
$2,,1.09,N,2.01,K,A*3C
$GPGGA,073647.000,3213.9377,N,11057.9136,W,1,06,1.85,613.0,M,-27.7,M,,*58
$GS,A,3,02,12,06,19,17,24,,,,,,,2.07,1.85,0.92*0F
$RM,073647.000,A,3213.9377,N,11057.9136,W,1.17,279.64,140118,,,A*7F
$V,279.64,T,,M,1.17,N,2.18,K,A*3F
$GPGGA,073648.000,3213.9376,N,11057.9146,W,1,06,1.85,613.2,M,-27.7,M,,*53
$GPGSA,A,3,02,12,06,19,17,24,,,,,,,2.07,1.85,0.92*0F
$GS,3,1,11,02,79,228,22,06,63,043,28,12,47,324,18,48,45,217,*74
$GS3,2,11,24,41,251,13,19,37,052,18,17,21,065,17,05,14,170,*7B
$GV3,11,25,09,315,,28,02,128,,29,01,269,*44
$P,073648.000,A,3213.9376,N,11057.9146,W,1.05,281.08,140118,,,A*78
$P,281.08,T,,M,1.05,N,1.94,K,A*36
$GPGGA,073649.000,3213.9365,N,11057.9147,W,1,06,1.85,613.4,M,-27.7,M,,*57
$P,A,3,02,12,06,19,17,24,,,,,,,2.07,1.85,0.92*0F
$R073649.000,A,3213.9365,N,11057.9147,W,0.78,275.50,140118,,,A*77
$G.T,,M,0.78,N,1.45,K,A*37
$GPGGA,073650.000,3213.9357,N,11057.9149,W,1,06,1.85,613.6,M,-27.7,M,,*52
$PA,3,02,12,06,19,17,24,,,,,,,2.07,1.85,0.92*0F
$PM,600A,3213.9357,N,11057.9149,W,0.62,270.20,140118,,,A*79
$T270.20,T,,M,0.62,N,1.16,K,A*38
$GPGGA,073651.000,3213.9345,N,11057.9152,W,1,06,1.85,613.8,M,-27.7,M,,*54
$GS,A,3,02,12,06,19,17,24,,,,,,,2.07,1.85,0.92*0F
$R,073651.000,A,3213.9345,N,11057.9152,W,0.56,248.01,140118,,,A*7E
$T248.01,T,,M,0.56,N,1.05,K,A*35
$GPGGA,073652.000,3213.9339,N,11057.9153,W,1,06,1.85,614.0,M,-27.7,M,,*52
$GSA,3,02,12,06,19,17,24,,,,,,,2.07,1.85,0.92*0F
$R,073652.000,A,3213.9339,N,11057.9153,W,0.41,240.77,140118,,,A*78
$VGM,0.41,N,0.76,K,A*3F
$GPGGA,073713.000,3213.9324,N,11057.9152,W,1,07,1.14,614.6,M,-27.7,M,,*54
$P,A,3,02,12,06,19,17,24,05,,,,,,1.45,1.14,0.90*05
$P,3,1,11,02,79,229,27,06,63,043,30,12,47,324,23,48,45,217,*71
$P,3,2,11,24,41,250,17,19,37,052,25,17,21,066,27,05,14,170,16*77
$P,3,3,11,25,09,315,,28,02,128,,29,01,269,*44
$P,073713.000,A,3213.9324,N,11057.9152,W,0.51,73.14,140118,,,A*47
$P,73.14,T,,M,0.51,N,0.95,K,A*04
$GPGGA,073714.000,3213.9324,N,11057.9150,W,1,07,1.14,614.7,M,-27.7,M,,50
$GGA,3,02,12,06,19,17,24,05,,,,,,1.45,1.1,0.90*05
$RM073714.000,A,3213.9324,N,11057.9150,W,0.50,75.19,140118,,,A*48
$VT,75.19,T,,M,0.50,N,0.93,K,A*08
$GPGGA,073715.000,3213.9324,N,11057.9148,W,1,07,1.14,614.7,M,-27.7,M,,*58
$GA,3,02,12,06,19,17,24,05,,,,,,1.45,1.14,0.90*05
$RM,073715.000,A,3213.9324,N,11057.9148,W,0.52,73.51,140118,,,A*48
$$GPGGA,073716.000,3213.9325,N,11057.9147,W,1,07,1.14,614.7,M,-27.7,M,,*55
$GSA,3,02,12,06,19,17,24,05,,,,,,1.45,1.14,0.90*05
$RM,073716.000,A,3213.9325,N,11057.9147,W,0.57,69.05,140118,,,A*4A
$VG.05,T,,M,0.57,N,1.06,K,A*02
$GPGGA,073717.000,3213.9326,N,11057.9145,W,1,07,1.14,614.7,M,-27.7,M,,*55
$P,A,3,02,12,06,19,17,24,05,,,,,,1.45,1.14,0.90*05
$P,073717.000,A,3213.9326,N,11057.9145,W,0.63,65.87,140118,,,A*4B
$P,65.87,T,,M,0.63,N,1.17,K,A*03
$GPGGA,073718.000,3213.9329,N,11057.9142,W,1,07,1.14,615.1,M,-27.7,M,,*55
$PA,3,02,12,06,19,17,24,05,,,,,,1.45,1.14,0.90*05
$GPG3,1,10,02,79,229,22,06,63,042,19,12,47,324,18,24,41,250,16*7D
$P,3,2,10,19,37,052,19,17,21,066,22,05,15,169,18,25,09,315,*70
$PV,3,10,28,02,128,,29,01,269,*7C
$M073718.000,A,3213.9329,N,11057.9142,W,0.69,62.84,140118,,,A*42
$4,,M,0.69,N,1.29,K,A*00
$GPGGA,073719.000,3213.9334,N,11057.9140,W,1,07,1.14,615.6,M,-27.7,M,,*5D
$GPGGA,073724.000,3213.9365,N,11057.9109,W,1,07,1.14,618.3,M,-27.7,M,,*52
$G,A,3,02,12,06,19,17,24,05,,,,,,1.45,1.14,0.90*05
$R,073724.000,A,3213.9365,N,11057.9109,W,1.42,60.13,140118,,,A*4E
$VT,60.13,T,,M,1.42,N,2.63,K,A*09
$GPGGA,073725.000,3213.9373,N,11057.9102,W,1,07,1.14,618.9,M,-27.7,M,,*55
$GA3,02,12,06,19,17,24,05,,,,,,1.45,1.14,0.90*05
$P073725.000,A,3213.9373,N,11057.9102,W,1.56,58.37,140118,,,A*4B
$P,8.37,T,,M,1.56,N,2.90,K,A*0D
$GPGGA,073726.000,3213.9380,N,11057.9093,W,1,07,1.14,619.4,M,-27.7,M,,*5F
$P,A,3,02,12,06,19,17,24,05,,,,,,1.45,1.14,0.90*05
$GR073726.000,A,3213.9380,N,11057.9093,W,1.69,58.40,140118,,,A*41
$V58.40,T,,M,1.69,N,3.12,K,A*0A
$GPGGA,073727.000,3213.9385,N,11057.9088,W,1,07,1.14,619.8,M,-27.7,M,,*5D
$PA,3,02,12,06,19,17,24,05,,,,,,1.45,1.14,0.90*05
$PC73727.000,A,3213.9385,N,11057.9088,W,1.71,58.52,140118,,,A*45
$GT58.52,T,,M,1.71,N,3.16,K,A*04
$GPGGA,073728.000,3213.9382,N,11057.9073,W,1,07,1.14,620.2,M,-27.7,M,,*51
$G,A,3,02,12,06,19,17,24,05,,,,,,1.45,1.14,0.90*05
$GS3,1,10,02,79,229,24,06,63,042,20,12,47,324,19,24,41,250,16*70
$S3,2,10,19,37,052,21,17,21,066,20,05,15,169,15,25,09,315,*74
$GS3,3,10,28,02,128,,29,01,269,*7C
$RM,073728.000,A,3213.9382,N,11057.9073,W,1.79,62.21,140118,,,A*4C
$V,62.21,T,,M,1.79,N,3.31,K,A*04
$GPGGA,073729.000,3213.9384,N,11057.9063,W,1,07,1.14,620.7,M,-27.7,M,,*52
$P,A,3,02,12,06,19,17,24,05,,,,,,1.45,1.14,0.90*05
$P,073729.000,A,3213.9384,N,11057.9063,W,1.78,63.62,140118,,,A*4D
$PV,,M,1.78,N,3.29,K,A*0A
$GPGGA,073730.000,3213.9385,N,11057.9051,W,1,07,1.14,621.1,M,-27.7,M,,*5D
$GGA,3,02,12,06,19,17,24,05,,,,,,1.45,1.14,0.90*05
$GPR073730.000,A,3213.9385,N,11057.9051,W,1.82,65.12,140118,,,A*41
$GPGGA,073753.000,3213.9569,N,11057.8994,W,1,07,1.33,640.4,M,-27.7,M,,*5A
$P,A,3,02,12,06,19,17,24,05,,,,,,2.44,1.33,2.05*0C
$PGS,,02,79,230,26,06,62,042,29,12,47,324,25,24,41,250,24*7D
$GS,3,2,11,19,36,053,20,17,21,066,21,05,15,169,18,25,10,316,17*75
$G,3,3,11,28,02,128,,29,01,269,,41,,,*78
$R,073753.000,A,3213.9569,N,11057.8994,W,0.80,6.19,140118,,,A*7C
$VT,6.19,T,,M,0.80,N,1.48,K,A*36
$GPGGA,073754.000,3213.9574,N,11057.8994,W,1,07,1.33,640.8,M,-27.7,M,,*5D
$GS,A,3,02,12,06,19,17,24,05,,,,,,244,1.33,2.05*0C
$M,A,3213.9574,N,11057.8994,W,0.90,3.93,140118,,,A*71
$V,3.93,T,,M,0.90,N,1.6,K,A*3C
$GPGGA,073755.000,3213.9577,N,11057.8993,W,1,07,1.33,641.2,M,-27.7,M,,*53
$PA,3,02,12,06,19,17,24,05,,,,,,2.44,1.33,2.05*0C
$P,073755.000,A,3213.9577,N,11057.8993,W,0.99,5.19,140118,,,A*79
$GV5.19,T,,M,0.99,N,1.83,K,A*3A
$GPGGA,073756.000,3213.9581,N,11057.8991,W,1,07,1.33,641.6,M,-27.7,M,,*5F
$PGA,3,02,12,06,19,17,24,05,,,,,,2.44,1.33,2.05*0C
$P,73756.000,A,3213.9581,N,11057.8991,W,1.05,8.90,140118,,,A*79
$PV8.90,T,,M,1.05,N,1.95,K,A*35
$GPGGA,073757.000,3213.9581,N,11057.8992,W,1,07,1.33,642.1,M,-27.7,M,,*59
$PA,3,02,12,06,19,17,24,05,,,,,,2.44,1.33,2.05*0C
$R,073757.000,A,3213.9581,N,11057.8992,W,0.98,12.78,140118,,,A*43
$VT,12.78,T,,M,0.98,N,1.82,K,A*0B
$GPGGA,073758.000,3213.9582,N,11057.8994,W,1,07,1.33,642.6,M,-27.7,M,,*54
$G,A,3,02,12,06,19,17,24,05,,,,,,2.44,1.33,2.05*0C
$G,3,1,10,02,79,230,25,06,62,042,21,12,47,324,25,24,41,250,16*76
$G,3,2,10,19,36,053,21,17,21,066,18,05,15,169,14,25,10,316,13*77
$G,3,3,10,28,02,128,,29,01,269,*7C
$RM,073758.000,A,3213.9582,N,11057.8994,W,0.95,14.61,140118,,,A*4A
$VTG.61,T,,M,0.95,N,1.77,K,A*02
$GPGGA,073804.000,3213.9603,N,11057.8980,W,1,07,1.14,647.8,M,-27.7,M,,*53
$P,A,3,02,12,06,19,17,24,05,,,,,,1.45,1.14,0.90*05
$P073804.000,A,3213.9603,N,11057.8980,W,1.35,21.86,140118,,,A*47
$P,21.86,T,,M,1.35,N,2.51,K,A*01
$PGGA,073805.000,3213.9608,N,11057.976,W,1,07,1.14,648.4,M,-27.7,M,,*53
$P,A,3,02,12,06,19,17,24,05,,,,,,1.45,1.14,0.90*05
$P,073805.000,A,3213.9608,N,11057.8976,W,1.20,23.21,140118,,,A*4F
$PV23.21,T,,M,1.20,N,2.23,K,A*0F
$GPGGA,073806.000,3213.9610,N,11057.8975,W,1,07,1.14,648.9,M,-27.7,M,,*57
$GS,A,3,02,12,06,19,17,24,05,,,,,,1.45,1.14,0.90*05
$RM073806.000,A,3213.9610,N,11057.8975,W,1.05,19.85,140118,,,A*46
$VT19.85,T,,M,1.05,N,1.94,K,A*00
$GPGGA,073807.000,3213.9612,N,11057.8975,W,1,07,1.14,649.3,M,-27.7,M,,*5F
$G,A,3,02,12,06,19,17,24,05,,,,,,1.45,1.14,0.90*05
$R,073807.000,A,3213.9612,N,11057.8975,W,0.88,16.15,140118,,,A*47
$VT16.15,T,,M,0.88,N,1.63,K,A*0A
$GPGGA,073808.000,3213.9619,N,11057.8977,W,1,07,1.14,650.2,M,-27.7,M,,*50
$GA3,02,12,06,19,17,24,05,,,,,,1.45,1.14,0.90*05
$P,3,1,10,02,79,230,25,06,62,042,20,12,47,324,24,24,41,250,22*71
$PG3,2,10,19,36,053,17,17,21,066,18,05,15,169,20,25,10,316,14*72
$P,3,3,10,28,02,128,,29,01,269,*7C
$P,073808.000,A,3213.9619,N,11057.8977,W,0.79,7.95,140118,,,A*77
$G$GPGGA,073809.000,3213.9621,N,11057.8978,W,1,07,1.33,650.7,M,-27.7,M,,*55
$PG,A,3,02,12,06,19,17,24,05,,,,,,2.45,1.33,2.05*0D
$PR073809.000,A,3213.9621,N,11057.8978,W,0.59,353.92,140118,,,A*75
$GPV353.92,T,,M,0.59,N,1.09,K,A*37
$GPGGA,073810.000,313.9617,N,11057.8981,W,1,07,1.33,651.3,M,-27.7,M,,*5B
$GSA,,02,12,06,19,17,24,05,,,,,,2.45,1.33,2.05*0D
$RM073810.000,A,3213.9617,N,1107.8981,W,0.32,315.36,140118,,,A*7F
$T315.36,T,,M,0.32,N,0.60,K,A*38
$GPGGA,073822.000,3213.9593,N,11057.8993,W,1,07,1.14,657.7,M,-27.7,M,,*51
$G,A,3,02,12,06,19,17,24,05,,,,,,1.45,1.14,0.90*05
$R,073822.000,A,3213.9593,N,11057.8993,W,1.13,196.76,140118,,,A*7D
$V,196.76,T,,M,1.13,N,2.10,K,A*32
$GPGGA,073823.000,3213.9589,N,11057.8995,W,1,07,1.14,658.2,M,-27.7,M,,*57
$GA3,02,12,06,19,17,24,05,,,,,,1.45,1.14,0.90*05
$,02,80,231,28,06,62,042,19,12,47,324,16,24,41,250,24*77
$P,3,2,11,19,36,053,19,17,21,066,24,05,15,169,19,25,10,316,*7D
$P,3,3,11,28,02,128,,29,01,269,,46,,,*7F
$P,073823.000,A,3213.9589,N,11057.8995,W,1.16,197.16,140118,,,A*73
$GV17.16,T,,M,1.16,N,2.14,K,A*34
$GPGGA,073824.000,3213.9585,N,11057.8998,W,1,07,1.14,658.6,M,-27.7,M,,*55
$PGA,3,02,12,06,19,17,24,5,,,,,,1.45,1.14,0.90*05
$P,73824.000,A,3213.585,N,11057.8998,W,1.20,198.35,140118,,,A*7E
$PV,83,M,1.20,N,2.23,K,A*3B
$GPGGA,073825.000,3213.9581,N,11057.8999,W,1,07,1.14,659.1,M,-27.7,M,,*57
$GSA,3,02,12,06,19,17,24,05,,,,,,1.45,1.14,0.90*05
$GM073825.000,A,3213.9581,N,11057.8999,W,1.23,196.61,140118,,,A*76
$GT196.61,T,,M,1.23,N,2.27,K,A*33
$GPGGA,073826.000,3213.9577,N,11057.8999,W,1,07,1.14,659.6,M,-27.7,M,,*5A
$GS,A,3,02,12,06,19,17,24,05,,,,,,1.45,1.14,0.90*05
$RM,073826.000,A,313.9577,N,11057.8999,W,1.26,195.02,140118,,,A*7F
$VT,195.02,T,,M,1.26,N,2.33,K,A*35
$GPGGA,073827.000,3213.9571,N,11057.8998,W,1,07,1.14,659.9,M,-27.7,M,,*53
$GGA,3,02,12,06,19,17,24,05,,,,,,1.45,1.14,0.90*05
$PR073827.000,A,3213.9571,N,11057.8998,W,1.30,191.96,140118,,,A*77
$P,191.96,T,,M,1.30,N,2.40,K,A*3F
$GPGGA,073828.000,213.9564,N,11057.8997,W,1,07,1.14,60.3,M,-27.7M,,*57
$P,A,3,02,12,06,19,17,24,05,,,,,,1.45,1.14,0.90*05
$P,3,1,11,02,80,231,26,06,62,042,18,12,47,324,16,24,41,250,22*7E
$GPGGA,073839.000,3213.9492,N,11057.8970,W,1,07,1.14,665.7,M,-27.7,M,,*57
$PA,3,02,12,06,19,17,24,05,,,,,,1.46,1.14,0.90*06
$R,073839.000,A,3213.9492,N,11057.8970,W,1.90,164.89,140118,,,A*7C
$V,164.89,T,,M,1.90,N,3.51,K,A*30
$GPGGA,073840.000,3213.9485,N,11057.8971,W,1,07,1.14,666.2,M,-27.7,M,,*58
$GSA,3,02,12,06,19,17,4,05,,,,,,1.46,1.14,0.90*06
$RM073840.000,A,3213.9485,N,11057.8971,W,1.91,170.44,140118,,,A*70
$GT170.44,T,,M,1.91,N,.55,K,A*31
$GPGGA,073841.000,3213.9478,N,11057.8973,W,1,07,1.14,666.6,M,-27.7,M,,*5D
$GS,A,3,02,12,06,19,17,24,05,,,,,,1.46,1.14,0.90*06
$RC3841.000,A,3213.9478,N,11057.8973,W,2.01,175.02,140118,,,A*7C
$P,175.02,T,,M,2.01,N,3.72,K,A*39
$GPGGA,073842.000,3213.9471,N,11057.8975,W,1,07,1.14,667.0,M,-27.7,M,,*56
$GA,3,02,12,06,19,17,24,05,,,,,,1.46,1.14,0.90*06
$PR073842.000,A,3213.9471,N,11057.8975,W,2.04,177.21,140118,,,A*76
$PV177.21,T,,M,2.04,N,3.77,K,A*3A
$GPGGA,073843.000,3213.9464,N,11057.8973,W,1,07,1.14,667.5,M,-27.7,M,,*50
$P,A,3,02,12,06,19,17,24,05,,,,,,1.46,1.14,0.90*06
$P,3,1,11,02,80,231,25,06,62,042,16,51,52,173,,12,47,324,20*74
$PV,2,11,24,41,250,24,19,36,053,18,17,21,066,19,05,15,169,18*73
$G3,3,11,25,10,316,,28,02,128,,29,01,269,*4F
$RM073843.000,A,3213.9464,N,11057.8973,W,2.06,173.27,140118,,,A*75
$V,173.27,T,,M,2.06,N,3.83,K,A*31
$GPGGA,073844.000,3213.9461,N,11057.8975,W,1,07,1.14,668.0,M,-27.7,M,,*5E
$G,,3,02,12,06,19,17,24,05,,,,,,1.46,1.14,0.90*06
$RM,073844.000,A,3213.9461,N,11057.8975,W,1.63,187.82,140118,,,A*75
$VT,187.82,T,,M,1.63,N,3.01,K,A*3F
$GPGGA,073845.000,32139457,N,11057.8975,W,1,07,1.14,668.,M,-27.7,M,,*5E
$GSA,02,12,06,19,17,24,05,,,,,,1.46,.14,0.90*06
$P073845.000,A,3213.9457,N,11057.8975,W,1.67,189.10,140118,,,A*70
$GPGGA,073850.000,3213.9427,N,11057.8980,W,1,07,1.14,671.1,M,-27.7,M,,*5A
$P,A,3,02,12,06,19,17,24,05,,,,,,1.46,1.14,0.90*06
$P,073850.000,A,3213.9427,N,11057.8980,W,2.36,187.60,140118,,,A*77
$P,187.60,T,,M,2.36,N,4.36,K,A*33
$GPGGA,073851.000,3213.9429,N,11057.8986,W,1,07,1.14,671.8,M,-27.7,M,,*5A
$P,A,3,02,12,06,19,17,24,05,,,,,,1.46,1.14,0.90*06
$P,073851.000,A,3213.9429,N,11057.8986,W,2.19,199.99,140118,,,A*7A
$PG99.99,T,,M,2.19,N,4.06,K,A*34
$GPGGA,073852.000,3213.9426,N,11057.8988,W,1,07,1.14672.3,M,-27.7,M,,*50
$GS,A,3,02,12,06,19,17,24,05,,,,,,1.46,1.14,0.90*06
$RM073852.000,A,3213.9426,N,11057.8988,W,1.75,199.61,140118,,,A*76
$VT,199.61,T,,M,1.75,N,3.24,K,A*3D
$GPGGA,073853.000,3213.9421,N,11057.8989,W,1,07,1.14,672.8,M,-27.7,M,,*5C
$GSA,3,02,12,06,19,17,24,05,,,,,,1.46,1.14,0.90*06
$G,3,1,10,02,80,231,25,06,62,042,18,12,47,324,22,24,40,249,25*75
$G,2,10,19,36,053,18,17,21,066,22,05,15,169,20,25,10,316,*71
$,,8,02,128,,29,01,270,*74
$P,073853.000,A,3213.9421,N,11057.8989,W,1.82,198.15,140118,,,A*7B
$V198.15,T,,M,1.82,N,3.37,K,A*35
$GPGGA,073854.000,3213.9418,N,11057.8994,W,1,07,1.14,673.1,M,-27.7,M,,*55
$GPGA,3,02,12,06,19,17,24,05,,,,,,1.46,1.14,0.90*06
$P,073854.000,A,3213.9418,N,11057.8994,W,1.79,203.37,140118,,,A*7F
$P,203.37,T,,M,1.79,N,3.32,K,A*35
$GPGGA,073855.000,3213.9414,N,11057.8999,W,1,07,1.14,673.2,M,-27.7,M,,*56
$GPGA,3,02,12,06,19,17,24,05,,,,,,1.46,1.14,0.90*06
$PRM750,A,3213.9414,N,11057.8999,W,1.77,205.13,140118,,,A*71
$T205.13,T,,M,1.77,N,3.28,K,A*30
$GPGGA,073856.000,3213.9409,N,11057.9006,W,1,07,1.14,673.4,M,-27.7,M,,*51
$A,3,02,12,06,19,1724,05,,,,,,1.46,1.14,0.90*06
$M073856.000,A,3213.9409,N,11057.9006,W,1.51,201.24,140118,,,A*74
j±,*59
$GPGSA,A,3,02,12,06,19,17,24,05,,,,,,1.46,1.1.*06
$M073900.000,A,3213.9410,N,11057.9016,W,0.34,88.60,140118,,,A*4E
$T88.60,T,,M,0.34,N,0.62,K,A*08
$GPGGA,073901.000,3213.9416,N,11057.9023,W,1,07,1.14,675.4,M,-27.7,M,,*5D
$SA,,02,12,06,19,17,24,05,,,,,,1.46,1.14,0.90*06
$P,073901.000,A,3213.9416,N,11057.9023,W,0.65,39.97,140118,,,A*49
$P,39.97,T,,M,0.65,N,1.21,K,A*08
$GPGGA,073902.000,3213.9422,N,11057.9027,W,1,07,1.14,676.0,M,-27.7,M,,*5A
$P,A,3,02,12,06,19,17,24,0,,,,,,1.46,114,0.90*06
$PR073902.000,A,3213.9422,N,11057.9027,W,0.97,27.86,140118,,,A*4B
$GV27.86,T,,M,0.97,N,1.79,K,A*07
$GPGGA,073903.000,3213.9428,N,11057.9030,W,1,07,1.14,676.5,M,-27.7,M,,*52
$P,A,3,02,12,06,19,17,24,05,,,,,,1.46,1.14,0.90*06
$PV,1,10,02,80,232,20,06,62,042,22,12,47,324,24,24,40,249,18*72
$G,3,2,10,19,36,053,22,17,21,066,21,05,15,169,13,25,10,316,*7B
$GS3,3,10,28,02,128,,29,01,270,*74
$RM073903.000,A,3213.9428,N,11057.9030,W,1.11,9.10,140118,,,A*7A
$V,.10,T,,M,1.11,N,2.06,K,A*30
$GPGGA,073904.000,3213.9436,N,11057.9034,W,1,07,1.34,677.0,M,-27.7,M,,*58
$G,A,3,02,12,06,19,17,24,05,,,,,,2.47,1.34,2.07*0A
$R,073904.000,A,3213.9436,N,11057.9034,W,1.46,1.50,140118,,,A*78
$V1.50,T,,M,1.46,N,2.70,K,A*3F
$GPGGA,073905.000,3213.9446,N,11057.9036,W,1,07,1.34,677.3,M,-27.7,M,,*5F
$P,A,3,02,12,06,19,17,24,05,,,,,,2.47,1.34,2.07*0A
$P,073905.000,A,3213.9446,N,11057.9036,W,1.61,8.62,140118,,,A*71
$PV8.62,T,,M,1.61,N,2.99,K,A*35
$GPGGA,073906.000,3213.9449,N,11057.9036,W,1,07,1.34,677.7,M,-27.7,M,,*57
$P,A,3,02,12,06,19,17,24,05,,,,,,2.47,1.34,2.07*0A
$PR073906.000,A,3213.9449,N,11057.9036,W,1.54,15.25,140118,,,A*44
$GPGGA,073914.000,3213.9468,N,11057.9036,W,1,07,1.34,680.5,M,-27.7,M,,*5D
$P,A,3,02,12,06,19,17,24,05,,,,,,2.47,1.34,2.08*05
$PMC73914.000,A,3213.9468,N,11057.9036,W,1.54,352.20,140118,,,A*71
$V,352.20,T,,M,1.54,N,2.85,K,A*34
$GPGGA,073915.000,3213.9469,N,11057.9036,W,1,07,1.34,680.7,M,-27.7,M,,*5F
$GSA,3,02,1206,19,17,24,05,,,,,,2.47,1.34,2.0805
GM073915.000,A,3213.9469,N,11057.903,W,1.70,350.35,140118,,,A*71
$V,350.35,T,,M,1.70,N,3.15,K,A*3C
$GPGGA,073916.000,3213.9473,N,11057.9038,W,1,07,1.34,681.1,M,-27.7,M,,*5E
$G,A,3,02,12,06,19,17,24,05,,,,,,2.47,1.34,2.08*05
$R,073916.000,A,3213.9473,N,11057.9038,W,1.82,347.56,140118,,,A*79
$VTG.56,T,,M,1.82,N,3.38,K,A*3D
$GPGGA,073917.000,3213.9476,N,11057.9039,W,1,07,1.34,681.5,M,-27.7,M,,*5F
$P,A,3,02,12,06,19,17,24,05,,,,,,2.47,1.34,2.08*05
$P,073917.000,A,3213.9476,N,11057.9039,W,1.86,353.04,140118,,,A*7A
$PV353.04,T,,M,1.86,N,3.45,K,A*31
$GPGGA,073918.000,3213.9478,N,11057.9039,W,1,07,1.34,682.0,M,-27.7,M,,*58
$P,A,3,02,12,06,19,17,24,05,,,,,,2.47,1.34,2.08*05
$P,3,1,11,02,80,232,22,06,62,042,21,12,48,324,25,24,40,249,17*73
$PSV,2,11,19,36,053,20,17,21,067,18,05,15,169,14,25,10,316,*74
$G,3,3,11,28,02,128,,29,01,270,,34,,,*72
$R,073918.000,A,3213.9478,N,11057.9039,W,1.93,352.62,140118,,,A*7E
$V,352.62,T,,M,1.93,N,3.57,K,A*37
$GPGGA,073919.000,3213.9481,N,11057.9041,W,1,07,1.34,682.5,M,-27.7,M,,*55
$G,A,3,02,12,06,19,17,24,05,,,,,,2.47,1.34,2.08*05
$M073919.000,A,3213.9481,N,11057.9041,W,2.05,350.86,140118,,,A*72
$V,350.86,T,,M,2.05,N,3.80,K,A*39
$GPGGA,07320.000,3213.9486,N,11057.9042,W,1,07,1.34,683.1M,-27.7,M,,*5E
$GA,,02,12,06,19,17,24,05,,,,,2.47,1.34,2.08*05
$P,73920.000,A,321.9486,N,11057.9042,W,2.33,52.11,140118,,,A*75
$GPGGA,073926.000,3213.9542,N,11057.9063,W,1,07,1.15,689.0,M,-27.7,M,,*5A
$P,A,3,02,12,06,19,17,24,05,,,,,,1.46,1.15,0.90*07
$P,073926.000,A,3213.9542,N,11057.9063,W,3.02,348.92,140118,,,A*7A
$P,348.92,T,,M,3.02,N,5.59,K,A*31
$GPGGA,073927.000,3213.9552,N,11057.9063,W,1,07,1.3,690.1,M,-27.7,M,,*50
$P,A,3,02,12,06,19,17,2405,,,,,,2.48,1.34,2.08*0A
$P,073927.000,A,3213.9552,N,11057.9063,W,2.80,352.34140118,,,A*76
$PG2.3,M,2.80,N,5.19,K,A*39
$GPGGA,073928.000,3213.9561,N,11057.9066,W,1,07,1.34,691.3,M,-27.7,M,,*59
$G,A,3,02,12,06,19,17,24,05,,,,,,2.48,1.34,2.08*0A
$G,3,1,10,02,80,232,21,06,62,042,22,12,48,324,23,24,40,249,18*7B
$G,3,2,10,19,36,053,20,17,21,067,19,05,15169,12,25,10,316,*72
$GGS3,3,10,29,01,270,,28,01,128,*77
$R,073928.000,A,3213.9561,N,11057.9066,W,2.59,351.75,140118,,,A*7E
$GT351.75,T,,M,2.59,N,4.80,K,A*3A
$GPGGA,073929.000,3213.9571,N,11057.9068,W,1,06,1.91,692.5,M,-27.7,M,,*5C
$GSA3,02,12,06,19,17,24,,,,,,,2.97,1.91,2.27*0F
$P073929.000,A,3213.9571,N,11057.9068,W,2.59,354.76,140118,,,A*76
$PV354.76,T,,M,2.59,N,4.81,K,A*3D
$GPGGA,073930.000,3213.9579,N,11057.9069,W,1,06,1.91,693.7,M,-27.7,M,,*5E
$P,A,3,02,12,06,19,17,24,,,,,,,2.97,1.91,2.27*0F
$P,073930.000,A,3213.9579,N,11057.9069,W,2.67,0.85,140118,,,A*74
$P,0.85,T,,M,2.67,N,4.95,K,A*3B
$GPGGA,073931.000,3213.9585,N,11057.9068,W,1,06,1.91,694.8,M,-27.7,M,,*55
$P,A,3,02,12,06,19,17,24,,,,,,,2.96,1.91,2.27*0E
$PC3931.000,A,3213.9585,N,11057.9068,W,2.52,6.08,140118,,,A*72
$VT6.08,T,,M,2.52,N,4.66,K,A*32
$GPGGA,073932.000,3213.9587,N,11057.9066,W,1,06,1.91,695.7,M,-27.7,M,,*54
$G,A,3,02,12,06,19,17,24,,,,,,,2.97,1.91,2.27*0F
$R,073932.000,A,3213.9587,N,11057.9066,W,2.35,10.31,140118,,,A*41
‰Ié‚j
$GPRMC,073938.000,A,3213.9611,N,11057.9071,W,23,1.56,140118,,,A*74
$V,351.56,T,,M,2.73,N,5.05,K,A*3F
$GPGGA,073939.000,3213.9618,N,11057.9072,W,1,06,1.91,702.5,M,-27.7,M,,*52
$G,A,3,02,12,06,19,17,24,,,,,,,2.96,1.91,2.26*0F
$RMC3939.000,A,3213.9618,N,11057.9072,W,2.83,350.61,140118,,,A*75
$P,350.61,T,,M,2.83,N,5.25,K,A*37
$GPGGA,073940.000,3213.9623,N11057.9072,W,1,06,1.91,703.6,M,27.7,M,,*56
$P,A,3,02,12,06,19,17,24,,,,,,,2.97,1.91,2.27*0F
$P,073940.000,A,3213.9623,N,11057.9072,W,2.22,351.10,14011,,,A7F
$V351.10,T,,M,2.22,N,4.11,K,A*3D
$GPGGA,073941.000,3213.9625,N,11057.9071,W,1,06,1.91,704.5,M,-27.7,M,,*56
$P,A,3,02,12,06,19,17,24,,,,,,,2.97,1.91,2.26*0E
$P,073941.000,A,3213.9625,N,11057.9071,W,1.89,3.95,140118,,,A*70
$PG95,T,,M,1.89,N,3.50,K,A*34
$GPGGA,073942.000,3213.9628,N,11057.9072,W,1,06,1.91,705.3,M,-27.7,M,,*5C
$G,A,3,02,12,06,19,17,24,,,,,,,2.96,1.91,2.26*0F
$R,073942.000,A,3213.9628,N,11057.9072,W,1.75,2.78,140118,,,A*7C
$V,.78,T,,M,1.75,N,3.24,K,A*36
$GPGGA,073943.000,3213.9633,N,11057.9073,W,1,06,1.91,706.1,M,-27.7,M,,*57
$G,A,3,02,12,06,19,17,24,,,,,,,2.97,1.91,2.26*0E
$G,3,1,10,02,80,233,21,06,62,042,19,12,48,324,24,24,40,249,17*7A
$G,3,2,10,19,36,053,22,17,21,067,20,05,16,169,,25,10,316,*7A
$GV3,10,29,01,270,,28,01,128,*77
$P,073943.000,A,3213.9633,N,11057.9073,W,1.90,6.39,140118,,,A*7C
$P,6.39,T,,M,1.90,N,3.52,K,A*3D
$GPGGA,073944.000,3213.9634,N,11057.9071,W,1,06,1.91,706.8,M,-27.7,M,,*5C
$PG,A,3,02,12,06,19,17,24,,,,,,,2.97,1.91,2.26*0E
$PR073944.000,A,3213.9634,N,11057.9071,W,1.73,14.62,140118,,,A*4E
$P14.62,T,,M,1.73,N,3.20,K,A*08
$GPGGA,073949.000,3213.9627,N,11057.9044,W,1,07,1.15,710.9,M,-27.7,M,,*5E
$P,A,3,02,12,06,19,17,24,05,,,,,,1.46,1.15,0.90*07
$P,073949.000,A,3213.9627,N,11057.9044,W,2.01,98.34,140118,,,A*46
$PG8.34,T,,M,2.01,N,3.72,K,A*0E
$GPGGA,073950.000,3213.9627,N,11057.9045,W,1,07,1.15,711.8,M,-27.7,M,,*57
$G,A,3,02,12,06,19,17,24,05,,,,,,1.46,1.15,0.90*07
$R,073950.000,A,3213.9627,N,11057.9045,W,1.17,141.29,140118,,,A*72
$V,141.29,T,,M,1.17,N,2.17,K,A*31
$GPGGA,073951.000,3213.9627,N,11057.9045,W,1,07,1.15,712.8,M,-27.7,M,,*55
$GA,3,02,12,06,19,17,24,05,,,,,,1.46,1.15,0.90*07
$RM073951.000,A,3213.9627,N,11057.9045,W,0.91,179.52,140118,,,A*7B
$T179.52,T,,M,0.91,N,1.69,K,A*33
$GPGGA,073952.000,3213.9627,N,11057.9045,W,1,07,1.15,713.6,M,-27.7,M,,*59
$P,A,3,02,12,06,19,17,24,05,,,,,,1.46,1.15,0.90*07
$P073952.000,A,3213.9627,N,11057.9045,W,0.70,204.66,140118,,,A*79
$P,204.66,T,,M,0.70,N,1.30,K,A*3E
$GPGGA,073953.000,3213.9622,N,11057.9043,W,1,07,1.15,714.5,M,-27.7,M,,*5F
$P,A,3,02,12,06,19,17,24,05,,,,,,1.46,1.15,0.90*07
$P,3,1,11,02,80,233,25,06,62,042,16,12,48,324,25,24,40,249,23*76
$P,3,2,11,19,36,054,16,17,20,067,17,05,16,169,19,25,10,316,*76
$PGV31,1,270,,28,01,128,,36,,,*73
$R,073953.000,A,3213.9622,N,11057.9043,W,1.49,192.96,140118,,,A*73
$V,192.96,T,,M,1.49,N,2.75,K,A*34
$GPGGA,073954.000,3213.9619,N,11057.9042,W,1,07,1.15,715.5,M,-27.7,M,,*50
$GSA,3,02,12,06,19,17,24,05,,,,,,1.46,1.15,0.90*07
$R,073954.000,A,3213.9619,N,11057.9042,W,1.73,186.79,140118,,,A*70
$T186.79,T,,M,1.73,N,3.21,K,A*39
$GPGGA,073955.000,3213.9617,N,11057.9042,W,1,07,1.15,716.6,M,-27.7,M,,*5F
$G,,3,02,12,06,19,17,24,05,,,,,,1.46,1.15,0.90*07
$R,073955.000,A,3213.9617,N,11057.9042,W,1.99,176.42,140118,,,A*7C
$GPGGA,073958.000,3213.9606,N,11057.9038,W,1,07,1.15,719.7,M,-27.7,M,,*51
$P,A,3,02,12,06,19,17,24,05,,,,,,1.46,1.15,0.90*07
$P,3,1,11,02,80,233,26,06,62,042,13,12,48,324,23,24,40,249,26*73
$P,3,2,11,19,36,054,15,17,20,067,20,05,16,169,21,25,11,316,*7B
$P,3,3,11,29,01,270,,28,01,128,,38,,,*7D
$P,073958.000,A,3213.9606,N,11057.9038,W,2.20,181.11,140118,,,A*73
$P,181.11,T,,M,2.20,N,4.07,K,A*36
$GPGGA,073959.000,3213.9602,N,11057.9039,W,1,07,1.15,720.7,M,-27.7,M,,*5F
$PA,3,02,12,06,19,17,24,05,,,,,1.46,1.15,0.90*07
$M073959.000,A,3213.9602,N,11057.9039,W,2.18,190.42,140118,,,A*7A
$V,190.42,T,,M,2.18,N,4.03,K,A*3F
$GPGGA,074000.000,3213.9597,N,11057.9040,W,1,07,1.15,721.5,M,-27.7,M,,*5F
$GSA,3,02,12,06,19,17,24,05,,,,,,1.46,1.15,0.90*07
$R,074000.000,A,3213.9597,N,11057.9040,W,2.22,193.36,140118,,,A*70
$VT,193.36,T,,M,2.22,N,4.12,K,A*36
$GPGGA,074001.000,3213.9592,N,11057.9042,W,1,07,1.15,722.4,M,-27.7,M,,*5B
$GS,A,3,02,12,06,19,17,24,05,,,,,,1.46,1.15,0.90*07
$RC4001.000,A,3213.9592,N,11057.9042,W,2.11,188.26,140118,,,A*7D
$P,188.26,T,,M,2.11,N,3.92,K,A*32
$GPGGA,074002.000,3213.9589,N,11057.9043,W,1,07,1.15,723.3,M,-27.7,M,,*55
$PGA,3,02,12,06,19,17,24,05,,,,,,1.46,1.15,0.90*07
$P,074002.000,A,3213.9589,N,11057.9043,W,1.74,187.48,140118,,,A*72
$P,187.48,T,,M,1.74,N,3.23,K,A*3F
$GPGGA,074003.000,3213.9585,N,11057.9041,W,1,07,1.15,724.2,M,-27.7,M,,*5C
$P,,3,02,12,06,19,17,24,05,,,,,,1.46,1.15,0.90*07
$P3,1,10,02,80,233,25,06,62,042,13,12,48,324,19,24,40,249,24*7A
$PV,2,10,19,36,054,15,17,20,067,19,05,16,169,19,25,11,316,*7B
$S3,3,10,29,01,270,,28,01,128,*77
$RM074003.000,A,3213.9585,N,11057.9041,W,1.72,188.83,140118,,,A*73
$VT188.83,T,,M,1.72,N,3.19,K,A*38
$GPGGA,074008.000,3213.9581,N,11057.9052,W,1,07,1.15,729.2,M,-27.7,M,,*5C
$G,A,3,02,12,06,19,17,24,05,,,,,,1.46,1.15,0.90*07
$G,3,1,11,02,80,234,27,06,62,042,17,12,48,324,26,24,40,249,25*77
$G,3,2,11,19,36,054,16,17,20,067,22,05,16,169,23,25,11,316,*78
$G,3,3,11,29,01,270,,28,01,128,,41,,,*73
$RC4008.000,A,3213.9581,N,11057.9052,W,2.10,181.43,140118,,,A*7C
$P,181.43,T,,M,2.10,N,3.90,K,A*3B
$GPGGA,074009.000,3213.9580,N,11057.9052,W,1,07,1.15,730.0,M,-27.7,M,,*56
$P,A,3,02,12,06,19,17,24,05,,,,,,1.46,1.15,0.90*07
$R074009.000,A,3213.9580,N,11057.9052,W,1.77,187.87,140118,,,A*70
$P,187.87,T,,M,1.77,N,3.28,K,A*34
$GPGGA,074010.000,3213.9578,N,11057.9053,W,1,07,1.15,730.7,M,-27.7,M,,*5F
$P,A,3,02,12,06,19,17,24,05,,,,,,1.46,1.15,0.90*07
$PR074010.000,A,3213.9578,N,11057.9053,W,1.56,208.16,140118,,,A*71
$PTG08.16,T,,M,1.56,N,2.88,K,A*30
$GPGGA,074011.000,3213.9575,N,11057.9056,W,1,07,1.15,731.4,M,-27.7,M,,*54
$G,A,3,02,12,06,19,17,24,05,,,,,,1.46,1.15,0.90*07
$R,074011.000,A,3213.9575,N,11057.9056,W,1.74,210.20,140118,,,A*74
$VT210.20,T,,M,1.74,N,3.22,K,A*3D
$GPGGA,074012.000,3213.9572,N,11057.9059,W,1,07,1.15,732.1,M,-27.7,M,,*59
$GSA,3,02,12,06,19,17,24,05,,,,,,1.46,1.15,0.90*07
$R,074012.000,A,3213.9572,N,11057.9059,W,1.26,216.12,140118,,,A*7F
$V,216.12,T,,M,1.26,N,2.33,K,A*3C
$GPGGA,074013.000,3213.9570,N,11057.9060,W,1,07,1.15,732.7,M,-27.7,M,,*56
$P,A,3,02,12,06,19,17,24,05,,,,,,1.46,1.15,0.90*07
$GG3,1,10,02,80,234,25,06,61,042,18,12,48,324,24,24,40,249,25*7A
$P3,2,10,19,36,054,16,17,20,067,21,05,16,169,19,25,11,316,*73
$P,3,3,10,29,01,270,,28,01,128,*77
$P,074013.000,A,3213.9570,N,11057.9060,W,1.04,212.55,140118,,,A*71
$PV212.55,T,,M,1.04,N,1.92,K,A*33
$GPGGA,074017.000,3213.9565,N,11057.9065,W,1,07,1.15,735.2,M,-27.7,M,,*51
$P,A,3,02,12,06,19,17,24,05,,,,,,1.46,1.15,0.90*07
$PC4100,A,3213.9565,N,11057.9065,W,1.02,229.01,140118,,,A*7B
$V,229.01,T,,M,1.02,N,1.88,K,A*37
$GPGGA,074018.000,3213.9567,N,11057.9064,W,1,07,1.15,735.9,M,-27.7,M,,*56
$GA,3,02,12,06,19,17,24,05,,,,,,1.46,1.15,0.90*07
$G,3,1,11,02,80,234,25,06,61,042,20,12,48,324,21,24,40,249,24*74
$G3,2,11,19,36,54,16,17,20,067,19,05,16,169,17,25,11,316,*77
$G,3,3,11,29,01,270,28,01,128,,43,,,*71
$GM074018.000,A,3213.9567N,11057.9064,W,0.44,244.93,140118,,,A*74
$V,244.93,T,,M,0.44,N,0.82,K,A*3F
$GPGGA,074019.000,3213.9570,N,11057.9064,W,1,07,1.15,736.1,M,-27.7,M,,*5A
$PGA,3,02,12,06,19,17,24,05,,,,,,1.46,1.15,0.90*07
$P,074019.000,A,3213.9570,N,11057.9064,W,0.82,260.20,140118,,,A*77
$VT,T,,M,0.82,N,1.53,K,A*36
$GPGGA,074021.000,3213.9574,N,11057.9070,W,1,07,1.15,737.2,M,-27.7,M,,*52
$P,A,3,02,12,06,19,17,24,05,,,,,,1.46,1.15,0.90*07
$P,074021.000,A,3213.9574,N,11057.9070,W,1.78,261.86,140118,,,A*74
$P,261.86,T,,M,1.78,N,3.31,K,A*39
$GPGGA,074022.000,3213.9573,N,11057.9075,W,1,07,1.15,737.6,M,-27.7,M,,*57
$GPA,3,02,12,06,19,1724,05,,,,,,1.46,1.15,0.90*07
$R,074022.000,A,3213.9573,N,11057.9075,W,1.87,258.26,10118,,,A*75
$V,58.26,T,,M,1.87,N,3.47K,A*38
$GPGGA,074023.000,3213.9571,N,11057.9080,W,1,07,1.15,738.0,M,-27.7,M,,*57
$G,A,3,02,12,06,19,17,24,05,,,,,,1.46,1.15,0.90*07
$G,3,1,10,02,80,234,24,06,61,042,17,12,48,324,20,24,40,249,27*72
$GS3,2,10,19,36,054,18,17,20,067,19,05,16,169,16,25,11,316,*79
$G,3,3,10,29,01,270,,28,01,128,*77
$R,074023.000,A,3213.9571,N,11057.9080,W,1.50,251.82,140118,,,A*71
$VTG1.82,T,,M,1.50,N,2.78,K,A*38
$GPGGA,074024.000,3213.9572,N,11057.9087,W,1,07,1.15,738.4,M,-27.7,M,,*50
$P,A,3,02,12,06,19,17,24,05,,,,,,1.46,1.15,0.90*07
$P,074024.000,A,3213.9572,N,11057.9087,W,1.49,260.04,140118,,,A*76
$P,60.04,T,,M,1.49,N,2.76,K,A*32
$GPGGA,074025.000,3213.9571,N,11057.9093,W,1,07,1.15,738.7,M,-27.7,M,,*54
$P,A,3,02,12,06,19,17,24,05,,,,,,1.46,1.15,0.90*07
$P,074025.000,A,3213.9571,N,11057.9093,W,1.56,257.85,140118,,,A*72
$P,257.85,T,,M,1.56,N,2.89,K,A*31
$GPGGA,074026.000,3213.9570,N,11057.9098,W,1,07,1.15,738.9,M,-27.7,M,,*53
$G,A,3,02,12,06,19,17,24,05,,,,,,1.46,1.15,0.90*07
$R,74026.000,A,3213.9570,N,11057.9098,W,1.38,256.20,140118,,,A*7D
$V,256.20,T,,M,1.38,N,2.56,K,A*35
$GPGGA,074027.000,3213.9569,N,11057.9102,W,1,07,1.15,739.2,M,-27.7,M,,*52
$G,A,3,02,12,06,19,17,24,05,,,,,,1.46,1.15,0.90*07
$R,074027.000,A,3213.9569,N,11057.9102,W,1.23,254.77,140118,,,A*7
$GPGGA,074030.000,3213.9559,N,11057.9123,W,1,07,1.15,740.1,M,-27.7,M,,*59
$G,A,3,02,12,06,19,17,24,05,,,,,,1.46,1.15,0.90*07
$RMC4030.000,A,3213.9559,N,11057.9123,W,1.96,247.87,140118,,,A*79
$P,247.87,T,,M,1.96,N,3.63,K,A*3B
$GPGGA,074031.000,3213.9558,N,11057.9131,W,1,07,1.15,740.4,M,-27.7,M,,*5F
$P,A,3,02,12,06,9,17,24,05,,,,,,1.46,1.15,0.90*07
$P,04031.000,A,3213.9558,N,11057.9131,W,1.67,260.12,140118,,,A*7D
$P,60.12,T,,M,1.67,N,3.09,K,A*30
$GPGGA,074032.000,3213.9556,N,11057.9136,W,1,07,1.15,740.6,M,-27.7,M,,*57
$PGA,3,02,12,06,19,17,24,05,,,,,,1.46,1.15,0.90*07
$PR074032.000,A,3213.9556,N,11057.9136,W,1.64,261.12,140118,,,A*75
$PG61.12,T,,M,1.64,N,3.04,K,A*3F
$GPGGA,074033.000,3213.9559,N,11057.9140,W,1,07,1.15,740.9,M,-27.7,M,,*57
$G,A,3,02,12,06,19,17,24,05,,,,,,1.46,1.15,0.90*07
$G,3,1,11,02,80,234,25,06,61,042,13,12,48,324,17,24,40,248,25*71
$G3,2,11,19,36,054,17,17,20,067,15,05,16,169,15,25,11,316,*78
$G,3,3,11,29,01,270,,28,01,128,,46,,,*74
$R,074033.000,A,3213.9559,N,11057.9140,W,1.27,288.94,140118,,,A*74
$V,288.94,T,,M,1.27,N,2.35,K,A*32
$GPGGA,074034.000,3213.9564,N,11057.9146,W,1,07,1.15,741.2,M,-27.7,M,,*52
$GSA3,02,12,06,19,17,24,05,,,,,,1.46,1.15,0.90*07
$P,074034.000,A,3213.9564,N,11057.9146,W,1.34,301.24,140118,,,A*72
$P,301.24,T,,M,1.34,N,2.49,K,A*30
$GPGGA,074035.000,3213.9567,N,11057.9151,W,1,07,1.15,741.4,M,-27.7,M,,*50
$P,A,3,02,12,06,19,17,24,05,,,,,,1.46,1.15,0.90*07
$P,074035.000,A,3213.9567,N,11057.9151,W,1.28,310.92,140118,,,A*76
$P,310.92,T,,M,1.28,N,2.37,K,A*39
$GPGGA,074036.000,3213.9571,N,11057.9155,W,1,07,1.15,741.7,M,-27.7,M,,*53
$P,A,3,02,12,06,19,17,24,05,,,,,,1.46,1.15,0.90*07
$PM70000,A,3213.9571,N,11057.9155,W,1.23,323.93,140118,,,A*7C
$GPRMC,074039.000,A,3213.9581,N,11057.92,2.17,281.01,140118,,,A*71
$VT,281.01,T,,M,2.17,N,4.02,K,A*35
$GPGGA,074040.000,3213.9582,N,11057.9201,W,1,07,1.15,741.9,M,-27.7,M,,*52
$GS,A,3,02,12,06,19,17,24,05,,,,,,1.46,1.15,0.90*07
$RM,074040.000,A,3213.9582,N,11057.9201,W,2.22,287.55,140118,,,A*74
$V,287.55,T,,M,2.22,N,4.12,K,A*35
$GPGA,074041.000,3213.9581,N,11057.9208,W,1,07,1.15,742.2,M,-27.7,M,,*51
$GA3,02,12,06,19,1724,05,,,,,,1.46,1.15,0.90*07
$PR,074041.000,A,3213.9581,N,11057.9208,W,1.76,275.43,140118,,A*77
$GPV275.43,T,,M,1.76,N,3.27,K,A*3C
$GPGGA,074042.000,3213.9580,N,11057.9212,W,1,07,1.15,742.5,M,-27.7,M,,*5F
$P,A,3,02,12,06,19,17,24,05,,,,,,1.46,1.15,0.90*07
$PR074042.000,A,3213.9580,N,11057.9212,W,1.25,261.95,140118,,,A*76
$P,261.95,T,,M,1.25,N,2.31,K,A*32
$GPGGA,074043.000,3213.9578,N,11057.9214,W,1,07,1.15,742.8,M,-27.7,M,,*52
$P,A,3,02,12,06,19,17,24,05,,,,,,1.46,1.15,0.90*07
$PV,1,11,02,80,234,22,06,61,042,15,12,48,324,1824,40,248,257F
$GS3,2,11,19,36,054,16,17,20,067,15,05,16,169,15,25,11,316,*79
$G,3,3,11,29,02,270,,28,01,129,,47,,,*77
$RM,074043.000,A,3213.9578,N,11057.9214,W,0.92,241.34,140118,,,A*72
$V,241.34,T,,M,0.92,N,1.70,K,A*30
$GPGGA,074044.000,3213.9573,N,11057.9214,W,1,07,1.15,743.1,M,-27.7,M,,*56
$GS,A,3,02,12,06,19,17,24,05,,,,,,1.46,1.15,0.90*07
$R,074044.000,A,3213.9573,N,11057.9214,W,0.88,210.29,140118,,,A*7D
$V,210.29,T,,M,0.88,N,1.63,K,A*31
$GPGGA,074045.000,3213.9564,N,11057.9213,W,1,07,1.15,743.4,M,-27.7,M,,*53
$P,A,3,02,12,06,19,17,24,05,,,,,,1.46,1.15,0.90*07
$P074045.000,A,3213.9564,N,11057.9213,W,1.14,210.61,140118,,,A*75
$GV210.61,T,,M,1.14,N,2.11,K,A*3F
$GPGGA,074048.000,3213.9552,N,11057.9230,W,1,07,1.15,744.0,M,-27.7,M,,*59
$P,A,3,02,12,06,19,17,24,05,,,,,,1.46,1.15,0.90*07
$P,3,1,11,02,80,235,30,06,61,041,18,12,48,324,23,24,40,248,27*79
$P,3,2,11,19,36,054,15,17,20,067,15,05,16,169,16,25,11,316,*79
$P,3,3,11,29,02,270,,28,01,129,,49,,,*79
$PC74048.000,A,3213.9552,N,11057.9230,W,1.68,242.26,140118,,,A*73
$VT,242.26,T,,M,1.68,N,3.11,K,A*31
$GPGGA,074049.000,3213.9553,N,11057.9244,W,1,07,1.15,744.1,M,-27.7,M,,*5B
$GS,A,3,02,12,06,19,17,24,05,,,,,,1.46,1.15,0.90*07
$R,074049.000,A,3213.9553,N,11057.9244,W,1.73,261.54,140118,,,A*7E
$VT,261.54,T,,M,1.73,N,3.20,K,A*3D
$GPGGA,074050.000,3213.9551,N,11057.9248,W,1,07,1.15,744.4,M,-27.7,M,,*58
$GSA,3,02,12,06,19,17,24,05,,,,,,1.46,1.15,0.90*07
$RM074050.000,A,3213.9551,N,11057.9248,W,0.82,273.08,140118,,,A*7D
$VG,.08,T,,M,0.82,N,1.52,K,A*3F
$GPGGA,074051.000,3213.9551,N,11057.9250,W,1,07,1.15,744.7,M,-27.7,M,,*53
$PGA,3,02,12,06,19,17,24,05,,,,,,1.46,1.15,0.90*07
$P,74051.000,A,3213.9551,N,11057.9250,W,0.38,340.60,140118,,,A*7B
$P340.60,T,,M,0.38,N,0.71,K,A*31
$GPGGA,074052.000,3213.9553,N,11057.9251,W,1,07,1.15,744.7,M,-27.7,M,,*53
$P,A,3,02,12,06,19,17,24,05,,,,,,1.46,1.15,0.90*07
$P,074052.000,A,3213.9553,N,11057.9251,W,0.56,336.25,140118,,,A*73
$P,336.25,T,,M,0.56,N,1.03,K,A*3D
$GPGGA,074053.000,3213.9553,N,11057.9248,W,1,07,1.15,744.6,M,-27.7,M,,*5B
$GS,A,3,02,12,06,19,17,24,05,,,,,,1.46,1.15,0.90*07
$GS,3,1,10,02,80,235,24,06,61,041,18,12,48,324,20,24,40,248,17*7D
$GS,3,2,10,19,36,054,17,17,20,067,16,05,16,169,13,25,11,316,*7C
$G,3,3,10,29,02,270,,28,01,129,*75
$R,074053.000,A,3213.9553,N,11057.9248,W,0.73,353.72,140118,,,A*7C
$T53.72,T,,M,0.73,N,1.36,K,A*3D
$GPVTG,18.47,T,,M,1.06,N,1.96,K,A*0E
$GPGGA,074056.000,3213.9557,N,11057.9226,W,1,07,1.15,744.6,M,-27.7,M,,*52
$GA3,02,12,06,19,17,24,05,,,,,,1.46,1.15,0.90*07
$P,074056.000,A,3213.9557,N,11057.9226,W,0.84,66.28,140118,,,A*47
$P,66.28,T,,M,0.84,N,1.56,K,A*09
$GPGGA,074057.000,3213.9557,N,11057.9219,W,1,07,1.15,744.7,M,-27.7,M,,*5E
$PGA,3,02,1,06,19,17,24,05,,,,,,1.46,.15,0.90*07
$PR074057.000,A,3213.9557,N11057.9219,W,1.17,75.08,140118,,,A*41
$GV75.08T,,M,1.17,N,2.17,K,A*04
$GGGA,074058.000,3213.9556,N,11057.9209,W,1,07,1.15,744.8,M,-27.7,M,,*5E
$GA,3,02,12,06,19,17,24,05,,,,,,1.46,1.15,0.90*07
$PG,1120,235,25,06,61,041,16,12,48,325,18,24,40,248,20*7D
$GS3,2,11,19,36,054,17,17,20,067,20,05,16,169,14,25,11,316,*7F
$S3,3,11,29,02,270,,28,01,129,,33,,,*74
$R,074058.000,A,3213.9556,N,11057.9209,W,1.61,85.01,140118,,,A*49
$VT,85.01,T,,M,1.61,N,2.98,K,A*04
$GPGGA,074059.000,3213.9557,N,11057.9201,W,1,07,1.15,744.9,M,-27.7,M,,*57
$SA,3,02,12,06,19,17,24,05,,,,,,1.46,1.15,0.90*07
$RM074059.000,A,3213.9557,N,11057.9201,W,1.70,84.95,140118,,,A*4D
$VT,84.95,T,,M,1.70,N,3.15,K,A*0C
,001*2E
$PMTK010,002*2D
$GPGGA,235942.800,,,,,0,00,,,M,,M,,*7B
$P,A,1,,,,,,,,,,,,,,,*1E
$P,235942.800,V,,,,,0.00,0.00,050180,,,N*42
$P,0.00,T,,M,0.00,N,0.00,K,N*32
$GPGGA,235943.800,,,,,0,00,,,M,,M,,*7A
$P,A,1,,,,,,,,,,,,,,,*1E
$P235943.800,V,,,,,0.00,0.00,05018,,,N*43
$V0.00,T,,M,0.00,N,0.00,K,N*32
$GPGGA,235944.799,,,,,0,00,,,M,,M,,*72
$P,A,1,,,,,,,,,,,,,,,*1E
$GR235944.799,V,,,,,0.00,0.00,050180,,,N*4B
$P,0.00,T,,M,0.00,N,0.00,K,N*32
$GPGGA,235945.799,,,,,0,00,,,M,,M,,*73
$PA1,,,,,,,,,,*1E
$R235945.799,V,,,,,0.00,0.00,050180,,,N*4A
$V0.00,T,,M,0.00,N,0.00,K,N*32
