$GPRMC,085335.836,V,3354.929,N,07602.495,W,12.2,1.10,130118,,E*45
$GPGGA,085336.836,3354.929,N,07602.495,W,0,00,,,M,,M,,*5F
$GPGLL,3354.929,N,07602.495,W,085337.836,V*3E
$GPRMC,085338.836,V,3354.929,N,07602.494,W,9.0,1.16,130118,,E*77
$GPGGA,085339.836,3354.929,N,07602.494,W,0,00,,,M,,M,,*51
$GPGLL,3354.929,N,07602.494,W,085340.836,V*3F
$GPRMC,085341.836,V,3354.928,N,07602.492,W,2.6,1.17,130118,,E*72
$GPGGA,085342.836,3354.928,N,07602.492,W,0,00,,,M,,M,,*5A
$GPGLL,3354.928,N,07602.492,W,085343.836,V*3B
$GPRMC,085344.836,V,3354.928,N,07602.490,W,86.4,1.19,130118,,E*45
$GPGGA,085345.836,3354.928,N,07602.490,W,0,00,,,M,,M,,*5F
$GPGLL,3354.928,N,07602.490,W,085346.836,V*3C
$GPRMC,085347.836,V,3354.927,N,07602.489,W,38.5,1.22,130118,,E*4D
$GPGGA,085348.836,3354.927,N,07602.489,W,0,00,,,M,,M,,*55
$GPGLL,3354.927,N,07602.489,W,085349.836,V*34
$GPRMC,085350.836,V,3354.927,N,07602.487,W,1.3,1.26,130118,,E*7D
$GPGGA,085351.836,3354.927,N,07602.487,W,0,00,,,M,,M,,*53
$GPGLL,3354.927,N,07602.487,W,085352.836,V*30
$GPRMC,085353.836,V,3354.926,N,07602.485,W,93.3,1.23,130118,,E*43
$GPGGA,085354.836,3354.926,N,07602.485,W,0,00,,,M,,M,,*55
$GPGLL,3354.926,N,07602.485,W,085355.836,V*34
$GPRMC,085356.836,V,3354.926,N,07602.484,W,66.7,1.16,130118,,E*4F
$GPGGA,085357.836,3354.926,N,07602.484,W,0,00,,,M,,M,,*57
$GPGLL,3354.926,N,07602.484,W,085358.836,V*38
$GPRMC,085359.836,V,3354.925,N,07602.482,W,75.8,1.24,130118,,E*49
$GPGGA,085400.836,3354.925,N,07602.482,W,0,00,,,M,,M,,*57
$GPGLL,3354.925,N,07602.482,W,085401.836,V*36
$GPRMC,085402.836,V,3354.924,N,07602.480,W,17.1,1.20,130118,,E*4A
$GPGGA,085403.836,3354.924,N,07602.480,W,0,00,,,M,,M,,*57
$GPGLL,3354.924,N,07602.480,W,085404.836,V*30
$GPRMC,085405.836,V,3354.924,N,07602.478,W,42.2,1.27,130118,,E*4E
$GPGGA,085406.836,3354.924,N,07602.478,W,0,00,,,M,,M,,*55
$GPGLL,3354.924,N,07602.478,W,085407.836,V*34
$GPRMC,085408.836,V,3354.923,N,07602.477,W,14.1,1.21,130118,,E*4D
$GPGGA,085409.836,3354.923,N,07602.477,W,0,00,,,M,,M,,*52
$GPGLL,3354.923,N,07602.477,W,085410.836,V*3A
$GPRMC,085411.836,V,3354.922,N,07602.475,W,83.4,1.19,130118,,E*46
$GPGGA,085412.836,3354.922,N,07602.475,W,0,00,,,M,,M,,*5B
$GPGLL,3354.922,N,07602.475,W,085413.836,V*3A
$GPRMC,085414.836,V,3354.922,N,07602.473,W,57.0,1.10,130118,,E*41
$GPGGA,085415.836,3354.922,N,07602.473,W,0,00,,,M,,M,,*5A
$GPGLL,3354.922,N,07602.473,W,085416.836,V*39
$GPRMC,085417.836,V,3354.922,N,07602.472,W,40.3,1.17,130118,,E*41
$GPGGA,085418.836,3354.922,N,07602.472,W,0,00,,,M,,M,,*56
$GPGLL,3354.922,N,07602.472,W,085419.836,V*37
$GPRMC,085420.836,V,3354.921,N,07602.470,W,12.5,1.17,130118,,E*45
$GPGGA,085421.836,3354.921,N,07602.470,W,0,00,,,M,,M,,*5D
$GPGLL,3354.921,N,07602.470,W,085422.836,V*3E
$GPRMC,085423.836,V,3354.921,N,07602.468,W,83.0,1.06,130118,,E*42
$GPGGA,085424.836,3354.921,N,07602.468,W,0,00,,,M,,M,,*51
$GPGLL,3354.921,N,07602.468,W,085425.836,V*30
$GPRMC,085426.836,V,3354.921,N,07602.466,W,13.0,0.99,130118,,E*47
$GPGGA,085427.836,3354.921,N,07602.466,W,0,00,,,M,,M,,*5C
$GPGLL,3354.921,N,07602.466,W,085428.836,V*33
$GPRMC,085429.836,V,3354.921,N,07602.464,W,87.3,0.98,130118,,E*45
$GPGGA,085430.836,3354.921,N,07602.464,W,0,00,,,M,,M,,*58
$GPGLL,3354.921,N,07602.464,W,085431.836,V*39
$GPRMC,085432.836,V,3354.921,N,07602.463,W,71.3,1.04,130118,,E*45
$GPGGA,085433.836,3354.921,N,07602.463,W,0,00,,,M,,M,,*5C
$GPGLL,3354.921,N,07602.463,W,085434.836,V*3B
$GPRMC,085435.836,V,3354.921,N,07602.461,W,35.0,0.91,130118,,E*4E
$GPGGA,085436.836,3354.921,N,07602.461,W,0,00,,,M,,M,,*5B
$GPGLL,3354.921,N,07602.461,W,085437.836,V*3A
$GPRMC,085438.836,V,3354.921,N,07602.459,W,99.2,1.01,130118,,E*44
$GPGGA,085439.836,3354.921,N,07602.459,W,0,00,,,M,,M,,*5F
$GPGLL,3354.921,N,07602.459,W,085440.836,V*31
$GPRMC,085441.836,V,3354.921,N,07602.457,W,7.5,1.00,130118,,E*75
$GPGGA,085442.836,3354.921,N,07602.457,W,0,00,,,M,,M,,*5D
$GPGLL,3354.921,N,07602.457,W,085443.836,V*3C
$GPRMC,085444.836,V,3354.921,N,07602.455,W,4.1,0.94,130118,,E*79
$GPGGA,085445.836,3354.921,N,07602.455,W,0,00,,,M,,M,,*58
$GPGLL,3354.921,N,07602.455,W,085446.836,V*3B
$GPRMC,085447.836,V,3354.922,N,07602.454,W,18.9,0.83,130118,,E*4B
$GPGGA,085448.836,3354.922,N,07602.454,W,0,00,,,M,,M,,*57
$GPGLL,3354.922,N,07602.454,W,085449.836,V*36
$GPRMC,085450.836,V,3354.923,N,07602.452,W,93.6,0.74,130118,,E*4E
$GPGGA,085451.836,3354.923,N,07602.452,W,0,00,,,M,,M,,*58
$GPGLL,3354.923,N,07602.452,W,085452.836,V*3B
$GPRMC,085453.836,V,3354.923,N,07602.450,W,78.1,0.78,130118,,E*41
$GPGGA,085454.836,3354.923,N,07602.450,W,0,00,,,M,,M,,*5F
$GPGLL,3354.923,N,07602.450,W,085455.836,V*3E
$GPRMC,085456.836,V,3354.924,N,07602.449,W,96.1,0.82,130118,,E*4E
$GPGGA,085457.836,3354.924,N,07602.449,W,0,00,,,M,,M,,*53
$GPGLL,3354.924,N,07602.449,W,085458.836,V*3C
$GPRMC,085459.836,V,3354.924,N,07602.447,W,68.2,0.87,130118,,E*48
$GPGGA,085500.836,3354.924,N,07602.447,W,0,00,,,M,,M,,*5E
$GPGLL,3354.924,N,07602.447,W,085501.836,V*3F
$GPRMC,085502.836,V,3354.925,N,07602.445,W,10.5,0.78,130118,,E*4C
$GPGGA,085503.836,3354.925,N,07602.445,W,0,00,,,M,,M,,*5E
$GPGLL,3354.925,N,07602.445,W,085504.836,V*39
$GPRMC,085505.836,V,3354.926,N,07602.444,W,63.3,0.72,130118,,E*41
$GPGGA,085506.836,3354.926,N,07602.444,W,0,00,,,M,,M,,*59
$GPGLL,3354.926,N,07602.444,W,085507.836,V*38
$GPRMC,085508.836,V,3354.926,N,07602.442,W,20.3,0.72,130118,,E*4D
$GPGGA,085509.836,3354.926,N,07602.442,W,0,00,,,M,,M,,*50
$GPGLL,3354.926,N,07602.442,W,085510.836,V*38
$GPRMC,085511.836,V,3354.927,N,07602.440,W,14.4,0.63,130118,,E*46
$GPGGA,085512.836,3354.927,N,07602.440,W,0,00,,,M,,M,,*59
$GPGLL,3354.927,N,07602.440,W,085513.836,V*38
$GPRMC,085514.836,V,3354.928,N,07602.439,W,69.8,0.55,130118,,E*41
$GPGGA,085515.836,3354.928,N,07602.439,W,0,00,,,M,,M,,*5F
$GPGLL,3354.928,N,07602.439,W,085516.836,V*3C
$GPRMC,085517.836,V,3354.930,N,07602.438,W,90.9,0.58,130118,,E*40
$GPGGA,085518.836,3354.930,N,07602.438,W,0,00,,,M,,M,,*5A
$GPGLL,3354.930,N,07602.438,W,085519.836,V*3B
$GPRMC,085520.836,V,3354.931,N,07602.436,W,91.8,0.52,130118,,E*41
$GPGGA,085521.836,3354.931,N,07602.436,W,0,00,,,M,,M,,*5F
$GPGLL,3354.931,N,07602.436,W,085522.836,V*3C
$GPRMC,085523.836,V,3354.932,N,07602.435,W,43.2,0.61,130118,,E*47
$GPGGA,085524.836,3354.932,N,07602.435,W,0,00,,,M,,M,,*5A
$GPGLL,3354.932,N,07602.435,W,085525.836,V*3B
$GPRMC,085526.836,V,3354.933,N,07602.433,W,63.0,0.55,130118,,E*42
$GPGGA,085527.836,3354.933,N,07602.433,W,0,00,,,M,,M,,*5E
$GPGLL,3354.933,N,07602.433,W,085528.836,V*31
$GPRMC,085529.836,V,3354.934,N,07602.432,W,42.6,0.56,130118,,E*4D
$GPGGA,085530.836,3354.934,N,07602.432,W,0,00,,,M,,M,,*5E
$GPGLL,3354.934,N,07602.432,W,085531.836,V*3F
$GPRMC,085532.836,V,3354.935,N,07602.431,W,14.7,0.61,130118,,E*43
$GPGGA,085533.836,3354.935,N,07602.431,W,0,00,,,M,,M,,*5F
$GPGLL,3354.935,N,07602.431,W,085534.836,V*38
$GPRMC,085535.836,V,3354.936,N,07602.429,W,67.4,0.71,130118,,E*48
$GPGGA,085536.836,3354.936,N,07602.429,W,0,00,,,M,,M,,*50
$GPGLL,3354.936,N,07602.429,W,085537.836,V*31
$GPRMC,085538.836,V,3354.936,N,07602.427,W,96.0,0.89,130118,,E*46
$GPGGA,085539.836,3354.936,N,07602.427,W,0,00,,,M,,M,,*51
$GPGLL,3354.936,N,07602.427,W,085540.836,V*3F
$GPRMC,085541.836,V,3354.936,N,07602.425,W,67.4,0.92,130118,,E*4A
$GPGGA,085542.836,3354.936,N,07602.425,W,0,00,,,M,,M,,*5F
$GPGLL,3354.936,N,07602.425,W,085543.836,V*3E
$GPRMC,085544.836,V,3354.937,N,07602.424,W,5.1,0.92,130118,,E*7E
$GPGGA,085545.836,3354.937,N,07602.424,W,0,00,,,M,,M,,*58
$GPGLL,3354.937,N,07602.424,W,085546.836,V*3B
$GPRMC,085547.836,V,3354.937,N,07602.422,W,98.4,0.95,130118,,E*4D
$GPGGA,085548.836,3354.937,N,07602.422,W,0,00,,,M,,M,,*53
$GPGLL,3354.937,N,07602.422,W,085549.836,V*32
$GPRMC,085550.836,V,3354.937,N,07602.420,W,37.0,0.90,130118,,E*4D
$GPGGA,085551.836,3354.937,N,07602.420,W,0,00,,,M,,M,,*59
$GPGLL,3354.937,N,07602.420,W,085552.836,V*3A
$GPRMC,085553.836,V,3354.938,N,07602.418,W,55.0,0.84,130118,,E*4B
$GPGGA,085554.836,3354.938,N,07602.418,W,0,00,,,M,,M,,*58
$GPGLL,3354.938,N,07602.418,W,085555.836,V*39
$GPRMC,085556.836,V,3354.938,N,07602.417,W,61.4,0.74,130118,,E*4D
$GPGGA,085557.836,3354.938,N,07602.417,W,0,00,,,M,,M,,*54
$GPGLL,3354.938,N,07602.417,W,085558.836,V*3B
$GPRMC,085559.836,V,3354.939,N,07602.415,W,16.2,0.69,130118,,E*4B
$GPGGA,085600.836,3354.939,N,07602.415,W,0,00,,,M,,M,,*56
$GPGLL,3354.939,N,07602.415,W,085601.836,V*37
$GPRMC,085602.836,V,3354.940,N,07602.413,W,59.9,0.73,130118,,E*45
$GPGGA,085603.836,3354.940,N,07602.413,W,0,00,,,M,,M,,*5D
$GPGLL,3354.940,N,07602.413,W,085604.836,V*3A
$GPRMC,085605.836,V,3354.940,N,07602.412,W,55.5,0.78,130118,,E*48
$GPGGA,085606.836,3354.940,N,07602.412,W,0,00,,,M,,M,,*59
$GPGLL,3354.940,N,07602.412,W,085607.836,V*38
$GPRMC,085608.836,V,3354.941,N,07602.410,W,99.3,0.86,130118,,E*41
$GPGGA,085609.836,3354.941,N,07602.410,W,0,00,,,M,,M,,*55
$GPGLL,3354.941,N,07602.410,W,085610.836,V*3D
$GPRMC,085611.836,V,3354.941,N,07602.408,W,41.0,0.82,130118,,E*42
$GPGGA,085612.836,3354.941,N,07602.408,W,0,00,,,M,,M,,*56
$GPGLL,3354.941,N,07602.408,W,085613.836,V*37
$GPRMC,085614.836,V,3354.942,N,07602.406,W,47.8,0.87,130118,,E*41
$GPGGA,085615.836,3354.942,N,07602.406,W,0,00,,,M,,M,,*5C
$GPGLL,3354.942,N,07602.406,W,085616.836,V*3F
$GPRMC,085617.836,V,3354.942,N,07602.405,W,5.0,0.96,130118,,E*7F
$GPGGA,085618.836,3354.942,N,07602.405,W,0,00,,,M,,M,,*52
$GPGLL,3354.942,N,07602.405,W,085619.836,V*33
$GPRMC,085620.836,V,3354.942,N,07602.403,W,58.6,1.04,130118,,E*49
$GPGGA,085621.836,3354.942,N,07602.403,W,0,00,,,M,,M,,*5E
$GPGLL,3354.942,N,07602.403,W,085622.836,V*3D
$GPRMC,085623.836,V,3354.941,N,07602.401,W,31.1,1.09,130118,,E*4E
$GPGGA,085624.836,3354.941,N,07602.401,W,0,00,,,M,,M,,*5A
$GPGLL,3354.941,N,07602.401,W,085625.836,V*3B
$GPRMC,085626.836,V,3354.940,N,07602.400,W,88.5,1.51,130118,,E*40
$GPGGA,085627.836,3354.940,N,07602.400,W,0,00,,,M,,M,,*59
$GPGLL,3354.940,N,07602.400,W,085628.836,V*36
$GPRMC,085629.836,V,3354.939,N,07602.399,W,8.0,1.61,130118,,E*78
$GPGGA,085630.836,3354.939,N,07602.399,W,0,00,,,M,,M,,*56
$GPGLL,3354.939,N,07602.399,W,085631.836,V*37
$GPRMC,085632.836,V,3354.937,N,07602.398,W,16.1,1.63,130118,,E*41
$GPGGA,085633.836,3354.937,N,07602.398,W,0,00,,,M,,M,,*5A
$GPGLL,3354.937,N,07602.398,W,085634.836,V*3D
$GPRMC,085635.836,V,3354.936,N,07602.397,W,97.0,1.67,130118,,E*44
$GPGGA,085636.836,3354.936,N,07602.397,W,0,00,,,M,,M,,*51
$GPGLL,3354.936,N,07602.397,W,085637.836,V*30
$GPRMC,085638.836,V,3354.934,N,07602.396,W,41.5,1.62,130118,,E*41
$GPGGA,085639.836,3354.934,N,07602.396,W,0,00,,,M,,M,,*5D
$GPGLL,3354.934,N,07602.396,W,085640.836,V*33
$GPRMC,085641.836,V,3354.933,N,07602.395,W,93.6,1.69,130118,,E*4C
$GPGGA,085642.836,3354.933,N,07602.395,W,0,00,,,M,,M,,*55
$GPGLL,3354.933,N,07602.395,W,085643.836,V*34
$GPRMC,085644.836,V,3354.931,N,07602.394,W,44.6,1.62,130118,,E*4B
$GPGGA,085645.836,3354.931,N,07602.394,W,0,00,,,M,,M,,*51
$GPGLL,3354.931,N,07602.394,W,085646.836,V*32
$GPRMC,085647.836,V,3354.930,N,07602.393,W,39.3,1.60,130118,,E*43
$GPGGA,085648.836,3354.930,N,07602.393,W,0,00,,,M,,M,,*5A
$GPGLL,3354.930,N,07602.393,W,085649.836,V*3B
$GPRMC,085650.836,V,3354.928,N,07602.392,W,34.3,1.66,130118,,E*46
$GPGGA,085651.836,3354.928,N,07602.392,W,0,00,,,M,,M,,*5A
$GPGLL,3354.928,N,07602.392,W,085652.836,V*39
$GPRMC,085653.836,V,3354.927,N,07602.391,W,37.7,1.60,130118,,E*48
$GPGGA,085654.836,3354.927,N,07602.391,W,0,00,,,M,,M,,*53
$GPGLL,3354.927,N,07602.391,W,085655.836,V*32
$GPRMC,085656.836,V,3354.925,N,07602.390,W,51.4,1.61,130118,,E*4C
$GPGGA,085657.836,3354.925,N,07602.390,W,0,00,,,M,,M,,*53
$GPGLL,3354.925,N,07602.390,W,085658.836,V*3C
$GPRMC,085659.836,V,3354.924,N,07602.389,W,21.3,1.51,130118,,E*49
$GPGGA,085700.836,3354.924,N,07602.389,W,0,00,,,M,,M,,*59
$GPGLL,3354.924,N,07602.389,W,085701.836,V*38
$GPRMC,085702.836,V,3354.922,N,07602.388,W,7.7,1.61,130118,,E*72
$GPGGA,085703.836,3354.922,N,07602.388,W,0,00,,,M,,M,,*5D
$GPGLL,3354.922,N,07602.388,W,085704.836,V*3A
$GPRMC,085705.836,V,3354.921,N,07602.387,W,12.2,1.59,130118,,E*43
$GPGGA,085706.836,3354.921,N,07602.387,W,0,00,,,M,,M,,*54
$GPGLL,3354.921,N,07602.387,W,085707.836,V*35
$GPRMC,085708.836,V,3354.920,N,07602.385,W,8.5,1.53,130118,,E*7B
$GPGGA,085709.836,3354.920,N,07602.385,W,0,00,,,M,,M,,*58
$GPGLL,3354.920,N,07602.385,W,085710.836,V*30
$GPRMC,085711.836,V,3354.918,N,07602.384,W,39.9,1.52,130118,,E*46
$GPGGA,085712.836,3354.918,N,07602.384,W,0,00,,,M,,M,,*58
$GPGLL,3354.918,N,07602.384,W,085713.836,V*39
$GPRMC,085714.836,V,3354.917,N,07602.383,W,36.3,1.52,130118,,E*4E
$GPGGA,085715.836,3354.917,N,07602.383,W,0,00,,,M,,M,,*57
$GPGLL,3354.917,N,07602.383,W,085716.836,V*34
$GPRMC,085717.836,V,3354.916,N,07602.382,W,45.7,1.54,130118,,E*4B
$GPGGA,085718.836,3354.916,N,07602.382,W,0,00,,,M,,M,,*5A
$GPGLL,3354.916,N,07602.382,W,085719.836,V*3B
$GPRMC,085720.836,V,3354.915,N,07602.380,W,18.3,1.06,130118,,E*45
$GPGGA,085721.836,3354.915,N,07602.380,W,0,00,,,M,,M,,*51
$GPGLL,3354.915,N,07602.380,W,085722.836,V*32
$GPRMC,085723.836,V,3354.915,N,07602.378,W,11.4,1.09,130118,,E*40
$GPGGA,085724.836,3354.915,N,07602.378,W,0,00,,,M,,M,,*53
$GPGLL,3354.915,N,07602.378,W,085725.836,V*32
$GPRMC,085726.836,V,3354.915,N,07602.376,W,97.8,1.19,130118,,E*48
$GPGGA,085727.836,3354.915,N,07602.376,W,0,00,,,M,,M,,*5E
$GPGLL,3354.915,N,07602.376,W,085728.836,V*31
$GPRMC,085729.836,V,3354.915,N,07602.375,W,72.5,0.79,130118,,E*45
$GPGGA,085730.836,3354.915,N,07602.375,W,0,00,,,M,,M,,*5B
$GPGLL,3354.915,N,07602.375,W,085731.836,V*3A
$GPRMC,085732.836,V,3354.916,N,07602.373,W,58.7,0.79,130118,,E*40
$GPGGA,085733.836,3354.916,N,07602.373,W,0,00,,,M,,M,,*5D
$GPGLL,3354.916,N,07602.373,W,085734.836,V*3A
$GPRMC,085735.836,V,3354.916,N,07602.371,W,21.0,0.90,130118,,E*4B
$GPGGA,085736.836,3354.916,N,07602.371,W,0,00,,,M,,M,,*5A
$GPGLL,3354.916,N,07602.371,W,085737.836,V*3B
$GPRMC,085738.836,V,3354.916,N,07602.370,W,29.7,0.88,130118,,E*41
$GPGGA,085739.836,3354.916,N,07602.370,W,0,00,,,M,,M,,*54
$GPGLL,3354.916,N,07602.370,W,085740.836,V*3A
$GPRMC,085741.836,V,3354.917,N,07602.368,W,77.6,0.84,130118,,E*41
$GPGGA,085742.836,3354.917,N,07602.368,W,0,00,,,M,,M,,*50
$GPGLL,3354.917,N,07602.368,W,085743.836,V*31
$GPRMC,085744.836,V,3354.917,N,07602.366,W,94.3,0.93,130118,,E*44
$GPGGA,085745.836,3354.917,N,07602.366,W,0,00,,,M,,M,,*59
$GPGLL,3354.917,N,07602.366,W,085746.836,V*3A
$GPRMC,085747.836,V,3354.917,N,07602.364,W,99.7,1.03,130118,,E*44
$GPGGA,085748.836,3354.917,N,07602.364,W,0,00,,,M,,M,,*56
$GPGLL,3354.917,N,07602.364,W,085749.836,V*37
$GPRMC,085750.836,V,3354.917,N,07602.362,W,0.6,1.04,130118,,E*72
$GPGGA,085751.836,3354.917,N,07602.362,W,0,00,,,M,,M,,*58
$GPGLL,3354.917,N,07602.362,W,085752.836,V*3B
$GPRMC,085753.836,V,3354.916,N,07602.361,W,42.9,1.14,130118,,E*4B
$GPGGA,085754.836,3354.916,N,07602.361,W,0,00,,,M,,M,,*5F
$GPGLL,3354.916,N,07602.361,W,085755.836,V*3E
$GPRMC,085756.836,V,3354.916,N,07602.359,W,78.9,1.18,130118,,E*40
$GPGGA,085757.836,3354.916,N,07602.359,W,0,00,,,M,,M,,*57
$GPGLL,3354.916,N,07602.359,W,085758.836,V*38
$GPRMC,085759.836,V,3354.916,N,07602.357,W,95.7,1.12,130118,,E*46
$GPGGA,085800.836,3354.916,N,07602.357,W,0,00,,,M,,M,,*54
$GPGLL,3354.916,N,07602.357,W,085801.836,V*35
$GPRMC,085802.836,V,3354.916,N,07602.355,W,44.8,1.02,130118,,E*47
$GPGGA,085803.836,3354.916,N,07602.355,W,0,00,,,M,,M,,*55
$GPGLL,3354.916,N,07602.355,W,085804.836,V*32
$GPRMC,085805.836,V,3354.915,N,07602.354,W,84.7,1.09,130118,,E*4A
$GPGGA,085806.836,3354.915,N,07602.354,W,0,00,,,M,,M,,*52
$GPGLL,3354.915,N,07602.354,W,085807.836,V*33
$GPRMC,085808.836,V,3354.915,N,07602.352,W,54.3,1.05,130118,,E*44
$GPGGA,085809.836,3354.915,N,07602.352,W,0,00,,,M,,M,,*5B
$GPGLL,3354.915,N,07602.352,W,085810.836,V*33
$GPRMC,085811.836,V,3354.915,N,07602.350,W,81.3,0.99,130118,,E*42
$GPGGA,085812.836,3354.915,N,07602.350,W,0,00,,,M,,M,,*53
$GPGLL,3354.915,N,07602.350,W,085813.836,V*32
$GPRMC,085814.836,V,3354.916,N,07602.349,W,43.2,0.51,130118,,E*47
$GPGGA,085815.836,3354.916,N,07602.349,W,0,00,,,M,,M,,*5F
$GPGLL,3354.916,N,07602.349,W,085816.836,V*3C
$GPRMC,085817.836,V,3354.918,N,07602.347,W,8.5,0.49,130118,,E*75
$GPGGA,085818.836,3354.918,N,07602.347,W,0,00,,,M,,M,,*52
$GPGLL,3354.918,N,07602.347,W,085819.836,V*33
$GPRMC,085820.836,V,3354.919,N,07602.346,W,13.5,0.40,130118,,E*42
$GPGGA,085821.836,3354.919,N,07602.346,W,0,00,,,M,,M,,*58
$GPGLL,3354.919,N,07602.346,W,085822.836,V*3B
$GPRMC,085823.836,V,3354.921,N,07602.345,W,21.9,0.48,130118,,E*4C
$GPGGA,085824.836,3354.921,N,07602.345,W,0,00,,,M,,M,,*55
$GPGLL,3354.921,N,07602.345,W,085825.836,V*34
$GPRMC,085826.836,V,3354.922,N,07602.344,W,18.4,0.54,130118,,E*41
$GPGGA,085827.836,3354.922,N,07602.344,W,0,00,,,M,,M,,*54
$GPGLL,3354.922,N,07602.344,W,085828.836,V*3B
$GPRMC,085829.836,V,3354.922,N,07602.342,W,13.4,0.91,130118,,E*4A
$GPGGA,085830.836,3354.922,N,07602.342,W,0,00,,,M,,M,,*54
$GPGLL,3354.922,N,07602.342,W,085831.836,V*35
$GPRMC,085832.836,V,3354.922,N,07602.340,W,34.1,0.88,130118,,E*4A
$GPGGA,085833.836,3354.922,N,07602.340,W,0,00,,,M,,M,,*55
$GPGLL,3354.922,N,07602.340,W,085834.836,V*32
