$GPRMC,071733.436,V,3754.928,N,08202.496,W,39.2,1.62,130118,,E*41
$GPGGA,071734.436,3754.928,N,08202.496,W,0,00,,,M,,M,,*53
$GPGLL,3754.928,N,08202.496,W,071735.436,V*32
$GPRMC,071736.436,V,3754.927,N,08202.495,W,82.4,1.61,130118,,E*4D
$GPGGA,071737.436,3754.927,N,08202.495,W,0,00,,,M,,M,,*5C
$GPGLL,3754.927,N,08202.495,W,071738.436,V*33
$GPRMC,071739.436,V,3754.925,N,08202.494,W,89.9,1.54,130118,,E*41
$GPGGA,071740.436,3754.925,N,08202.494,W,0,00,,,M,,M,,*5F
$GPGLL,3754.925,N,08202.494,W,071741.436,V*3E
$GPRMC,071742.436,V,3754.924,N,08202.493,W,89.1,1.64,130118,,E*40
$GPGGA,071743.436,3754.924,N,08202.493,W,0,00,,,M,,M,,*5A
$GPGLL,3754.924,N,08202.493,W,071744.436,V*3D
$GPRMC,071745.436,V,3754.922,N,08202.492,W,71.9,1.60,130118,,E*4B
$GPGGA,071746.436,3754.922,N,08202.492,W,0,00,,,M,,M,,*58
$GPGLL,3754.922,N,08202.492,W,071747.436,V*39
$GPRMC,071748.436,V,3754.921,N,08202.491,W,85.3,1.59,130118,,E*4D
$GPGGA,071749.436,3754.921,N,08202.491,W,0,00,,,M,,M,,*57
$GPGLL,3754.921,N,08202.491,W,071750.436,V*3F
$GPRMC,071751.436,V,3754.920,N,08202.490,W,68.8,1.51,130118,,E*45
$GPGGA,071752.436,3754.920,N,08202.490,W,0,00,,,M,,M,,*5D
$GPGLL,3754.920,N,08202.490,W,071753.436,V*3C
$GPRMC,071754.436,V,3754.918,N,08202.489,W,89.4,1.58,130118,,E*49
$GPGGA,071755.436,3754.918,N,08202.489,W,0,00,,,M,,M,,*59
$GPGLL,3754.918,N,08202.489,W,071756.436,V*3A
$GPRMC,071757.436,V,3754.917,N,08202.488,W,72.3,1.67,130118,,E*4B
$GPGGA,071758.436,3754.917,N,08202.488,W,0,00,,,M,,M,,*5A
$GPGLL,3754.917,N,08202.488,W,071759.436,V*3B
$GPRMC,071800.436,V,3754.915,N,08202.487,W,8.2,1.77,130118,,E*76
$GPGGA,071801.436,3754.915,N,08202.487,W,0,00,,,M,,M,,*54
$GPGLL,3754.915,N,08202.487,W,071802.436,V*37
$GPRMC,071803.436,V,3754.913,N,08202.486,W,34.8,1.76,130118,,E*46
$GPGGA,071804.436,3754.913,N,08202.486,W,0,00,,,M,,M,,*56
$GPGLL,3754.913,N,08202.486,W,071805.436,V*37
$GPRMC,071806.436,V,3754.912,N,08202.485,W,94.3,1.53,130118,,E*47
$GPGGA,071807.436,3754.912,N,08202.485,W,0,00,,,M,,M,,*57
$GPGLL,3754.912,N,08202.485,W,071808.436,V*38
$GPRMC,071809.436,V,3754.910,N,08202.484,W,72.3,1.64,130118,,E*47
$GPGGA,071810.436,3754.910,N,08202.484,W,0,00,,,M,,M,,*52
$GPGLL,3754.910,N,08202.484,W,071811.436,V*33
$GPRMC,071812.436,V,3754.909,N,08202.483,W,76.2,1.59,130118,,E*49
$GPGGA,071813.436,3754.909,N,08202.483,W,0,00,,,M,,M,,*5E
$GPGLL,3754.909,N,08202.483,W,071814.436,V*39
$GPRMC,071815.436,V,3754.908,N,08202.482,W,37.2,1.52,130118,,E*40
$GPGGA,071816.436,3754.908,N,08202.482,W,0,00,,,M,,M,,*5B
$GPGLL,3754.908,N,08202.482,W,071817.436,V*3A
$GPRMC,071818.436,V,3754.906,N,08202.481,W,22.5,1.60,130118,,E*42
$GPGGA,071819.436,3754.906,N,08202.481,W,0,00,,,M,,M,,*59
$GPGLL,3754.906,N,08202.481,W,071820.436,V*33
$GPRMC,071821.436,V,3754.905,N,08202.480,W,6.1,1.53,130118,,E*78
$GPGGA,071822.436,3754.905,N,08202.480,W,0,00,,,M,,M,,*53
$GPGLL,3754.905,N,08202.480,W,071823.436,V*32
$GPRMC,071824.436,V,3754.903,N,08202.479,W,61.0,1.59,130118,,E*47
$GPGGA,071825.436,3754.903,N,08202.479,W,0,00,,,M,,M,,*54
$GPGLL,3754.903,N,08202.479,W,071826.436,V*37
$GPRMC,071827.436,V,3754.902,N,08202.478,W,13.6,1.94,130118,,E*46
$GPGGA,071828.436,3754.902,N,08202.478,W,0,00,,,M,,M,,*59
$GPGLL,3754.902,N,08202.478,W,071829.436,V*38
$GPRMC,071830.436,V,3754.900,N,08202.478,W,95.4,1.85,130118,,E*4E
$GPGGA,071831.436,3754.900,N,08202.478,W,0,00,,,M,,M,,*53
$GPGLL,3754.900,N,08202.478,W,071832.436,V*30
$GPRMC,071833.436,V,3754.898,N,08202.478,W,81.2,1.94,130118,,E*4E
$GPGGA,071834.436,3754.898,N,08202.478,W,0,00,,,M,,M,,*56
$GPGLL,3754.898,N,08202.478,W,071835.436,V*37
$GPRMC,071836.436,V,3754.896,N,08202.477,W,2.5,1.88,130118,,E*7B
$GPGGA,071837.436,3754.896,N,08202.477,W,0,00,,,M,,M,,*54
$GPGLL,3754.896,N,08202.477,W,071838.436,V*3B
$GPRMC,071839.436,V,3754.895,N,08202.477,W,90.0,1.94,130118,,E*44
$GPGGA,071840.436,3754.895,N,08202.477,W,0,00,,,M,,M,,*57
$GPGLL,3754.895,N,08202.477,W,071841.436,V*36
$GPRMC,071842.436,V,3754.893,N,08202.477,W,72.8,1.91,130118,,E*4F
$GPGGA,071843.436,3754.893,N,08202.477,W,0,00,,,M,,M,,*52
$GPGLL,3754.893,N,08202.477,W,071844.436,V*35
$GPRMC,071845.436,V,3754.891,N,08202.477,W,26.5,2.01,130118,,E*4C
$GPGGA,071846.436,3754.891,N,08202.477,W,0,00,,,M,,M,,*55
$GPGLL,3754.891,N,08202.477,W,071847.436,V*34
$GPRMC,071848.436,V,3754.889,N,08202.477,W,94.4,1.98,130118,,E*43
$GPGGA,071849.436,3754.889,N,08202.477,W,0,00,,,M,,M,,*53
$GPGLL,3754.889,N,08202.477,W,071850.436,V*3B
$GPRMC,071851.436,V,3754.887,N,08202.477,W,4.6,1.94,130118,,E*72
$GPGGA,071852.436,3754.887,N,08202.477,W,0,00,,,M,,M,,*57
$GPGLL,3754.887,N,08202.477,W,071853.436,V*36
$GPRMC,071854.436,V,3754.886,N,08202.477,W,21.3,1.94,130118,,E*44
$GPGGA,071855.436,3754.886,N,08202.477,W,0,00,,,M,,M,,*51
$GPGLL,3754.886,N,08202.477,W,071856.436,V*32
$GPRMC,071857.436,V,3754.884,N,08202.476,W,43.7,1.93,130118,,E*43
$GPGGA,071858.436,3754.884,N,08202.476,W,0,00,,,M,,M,,*5F
$GPGLL,3754.884,N,08202.476,W,071859.436,V*3E
$GPRMC,071900.436,V,3754.882,N,08202.476,W,32.5,1.94,130118,,E*45
$GPGGA,071901.436,3754.882,N,08202.476,W,0,00,,,M,,M,,*54
$GPGLL,3754.882,N,08202.476,W,071902.436,V*37
$GPRMC,071903.436,V,3754.880,N,08202.476,W,22.7,1.87,130118,,E*45
$GPGGA,071904.436,3754.880,N,08202.476,W,0,00,,,M,,M,,*53
$GPGLL,3754.880,N,08202.476,W,071905.436,V*32
$GPRMC,071906.436,V,3754.879,N,08202.475,W,47.9,1.82,130118,,E*4D
$GPGGA,071907.436,3754.879,N,08202.475,W,0,00,,,M,,M,,*55
$GPGLL,3754.879,N,08202.475,W,071908.436,V*3A
$GPRMC,071909.436,V,3754.877,N,08202.475,W,90.6,1.77,130118,,E*43
$GPGGA,071910.436,3754.877,N,08202.475,W,0,00,,,M,,M,,*5D
$GPGLL,3754.877,N,08202.475,W,071911.436,V*3C
$GPRMC,071912.436,V,3754.876,N,08202.473,W,61.9,1.29,130118,,E*44
$GPGGA,071913.436,3754.876,N,08202.473,W,0,00,,,M,,M,,*59
$GPGLL,3754.876,N,08202.473,W,071914.436,V*3E
$GPRMC,071915.436,V,3754.875,N,08202.472,W,55.7,1.27,130118,,E*46
$GPGGA,071916.436,3754.875,N,08202.472,W,0,00,,,M,,M,,*5E
$GPGLL,3754.875,N,08202.472,W,071917.436,V*3F
$GPRMC,071918.436,V,3754.875,N,08202.470,W,63.6,1.18,130118,,E*41
$GPGGA,071919.436,3754.875,N,08202.470,W,0,00,,,M,,M,,*53
$GPGLL,3754.875,N,08202.470,W,071920.436,V*39
$GPRMC,071921.436,V,3754.874,N,08202.468,W,76.1,1.23,130118,,E*48
$GPGGA,071922.436,3754.874,N,08202.468,W,0,00,,,M,,M,,*53
$GPGLL,3754.874,N,08202.468,W,071923.436,V*32
$GPRMC,071924.436,V,3754.874,N,08202.466,W,2.8,1.15,130118,,E*7C
$GPGGA,071925.436,3754.874,N,08202.466,W,0,00,,,M,,M,,*5A
$GPGLL,3754.874,N,08202.466,W,071926.436,V*39
$GPRMC,071927.436,V,3754.874,N,08202.465,W,29.0,1.06,130118,,E*4F
$GPGGA,071928.436,3754.874,N,08202.465,W,0,00,,,M,,M,,*54
$GPGLL,3754.874,N,08202.465,W,071929.436,V*35
$GPRMC,071930.436,V,3754.873,N,08202.463,W,7.7,1.16,130118,,E*72
$GPGGA,071931.436,3754.873,N,08202.463,W,0,00,,,M,,M,,*5D
$GPGLL,3754.873,N,08202.463,W,071932.436,V*3E
$GPRMC,071933.436,V,3754.873,N,08202.461,W,44.0,1.23,130118,,E*45
$GPGGA,071934.436,3754.873,N,08202.461,W,0,00,,,M,,M,,*5A
$GPGLL,3754.873,N,08202.461,W,071935.436,V*3B
$GPRMC,071936.436,V,3754.872,N,08202.459,W,6.2,1.12,130118,,E*7C
$GPGGA,071937.436,3754.872,N,08202.459,W,0,00,,,M,,M,,*53
$GPGLL,3754.872,N,08202.459,W,071938.436,V*3C
$GPRMC,071939.436,V,3754.872,N,08202.458,W,85.3,1.17,130118,,E*4D
$GPGGA,071940.436,3754.872,N,08202.458,W,0,00,,,M,,M,,*52
$GPGLL,3754.872,N,08202.458,W,071941.436,V*33
$GPRMC,071942.436,V,3754.871,N,08202.456,W,89.6,1.12,130118,,E*40
$GPGGA,071943.436,3754.871,N,08202.456,W,0,00,,,M,,M,,*5C
$GPGLL,3754.871,N,08202.456,W,071944.436,V*3B
$GPRMC,071945.436,V,3754.871,N,08202.454,W,5.3,1.17,130118,,E*71
$GPGGA,071946.436,3754.871,N,08202.454,W,0,00,,,M,,M,,*5B
$GPGLL,3754.871,N,08202.454,W,071947.436,V*3A
$GPRMC,071948.436,V,3754.871,N,08202.452,W,45.8,1.13,130118,,E*41
$GPGGA,071949.436,3754.871,N,08202.452,W,0,00,,,M,,M,,*52
$GPGLL,3754.871,N,08202.452,W,071950.436,V*3A
$GPRMC,071951.436,V,3754.870,N,08202.451,W,31.6,1.17,130118,,E*42
$GPGGA,071952.436,3754.870,N,08202.451,W,0,00,,,M,,M,,*5A
$GPGLL,3754.870,N,08202.451,W,071953.436,V*3B
$GPRMC,071954.436,V,3754.870,N,08202.449,W,95.1,1.20,130118,,E*43
$GPGGA,071955.436,3754.870,N,08202.449,W,0,00,,,M,,M,,*54
$GPGLL,3754.870,N,08202.449,W,071956.436,V*37
$GPRMC,071957.436,V,3754.869,N,08202.447,W,91.3,1.21,130118,,E*41
$GPGGA,071958.436,3754.869,N,08202.447,W,0,00,,,M,,M,,*5F
$GPGLL,3754.869,N,08202.447,W,071959.436,V*3E
$GPRMC,072000.436,V,3754.867,N,08202.446,W,8.5,1.68,130118,,E*7D
$GPGGA,072001.436,3754.867,N,08202.446,W,0,00,,,M,,M,,*56
$GPGLL,3754.867,N,08202.446,W,072002.436,V*35
$GPRMC,072003.436,V,3754.866,N,08202.445,W,95.7,1.64,130118,,E*46
$GPGGA,072004.436,3754.866,N,08202.445,W,0,00,,,M,,M,,*51
$GPGLL,3754.866,N,08202.445,W,072005.436,V*30
$GPRMC,072006.436,V,3754.864,N,08202.444,W,50.2,1.67,130118,,E*4F
$GPGGA,072007.436,3754.864,N,08202.444,W,0,00,,,M,,M,,*51
$GPGLL,3754.864,N,08202.444,W,072008.436,V*3E
$GPRMC,072009.436,V,3754.863,N,08202.443,W,7.1,1.58,130118,,E*7D
$GPGGA,072010.436,3754.863,N,08202.443,W,0,00,,,M,,M,,*57
$GPGLL,3754.863,N,08202.443,W,072011.436,V*36
$GPRMC,072012.436,V,3754.861,N,08202.442,W,26.1,1.58,130118,,E*47
$GPGGA,072013.436,3754.861,N,08202.442,W,0,00,,,M,,M,,*57
$GPGLL,3754.861,N,08202.442,W,072014.436,V*30
$GPRMC,072015.436,V,3754.860,N,08202.441,W,23.3,1.55,130118,,E*48
$GPGGA,072016.436,3754.860,N,08202.441,W,0,00,,,M,,M,,*50
$GPGLL,3754.860,N,08202.441,W,072017.436,V*31
$GPRMC,072018.436,V,3754.859,N,08202.440,W,23.2,1.62,130118,,E*4B
$GPGGA,072019.436,3754.859,N,08202.440,W,0,00,,,M,,M,,*54
$GPGLL,3754.859,N,08202.440,W,072020.436,V*3E
$GPRMC,072021.436,V,3754.857,N,08202.439,W,84.8,1.55,130118,,E*42
$GPGGA,072022.436,3754.857,N,08202.439,W,0,00,,,M,,M,,*5C
$GPGLL,3754.857,N,08202.439,W,072023.436,V*3D
$GPRMC,072024.436,V,3754.856,N,08202.438,W,53.2,1.58,130118,,E*4A
$GPGGA,072025.436,3754.856,N,08202.438,W,0,00,,,M,,M,,*5B
$GPGLL,3754.856,N,08202.438,W,072026.436,V*38
$GPRMC,072027.436,V,3754.854,N,08202.437,W,42.9,1.51,130118,,E*46
$GPGGA,072028.436,3754.854,N,08202.437,W,0,00,,,M,,M,,*5B
$GPGLL,3754.854,N,08202.437,W,072029.436,V*3A
$GPRMC,072030.436,V,3754.853,N,08202.436,W,75.6,1.62,130118,,E*4D
$GPGGA,072031.436,3754.853,N,08202.436,W,0,00,,,M,,M,,*55
$GPGLL,3754.853,N,08202.436,W,072032.436,V*36
$GPRMC,072033.436,V,3754.851,N,08202.435,W,2.0,1.66,130118,,E*7D
$GPGGA,072034.436,3754.851,N,08202.435,W,0,00,,,M,,M,,*51
$GPGLL,3754.851,N,08202.435,W,072035.436,V*30
$GPRMC,072036.436,V,3754.850,N,08202.434,W,45.8,1.58,130118,,E*4E
$GPGGA,072037.436,3754.850,N,08202.434,W,0,00,,,M,,M,,*52
$GPGLL,3754.850,N,08202.434,W,072038.436,V*3D
$GPRMC,072039.436,V,3754.848,N,08202.433,W,91.3,1.68,130118,,E*4E
$GPGGA,072040.436,3754.848,N,08202.433,W,0,00,,,M,,M,,*5C
$GPGLL,3754.848,N,08202.433,W,072041.436,V*3D
$GPRMC,072042.436,V,3754.847,N,08202.432,W,75.8,1.60,130118,,E*45
$GPGGA,072043.436,3754.847,N,08202.432,W,0,00,,,M,,M,,*51
$GPGLL,3754.847,N,08202.432,W,072044.436,V*36
$GPRMC,072045.436,V,3754.846,N,08202.431,W,46.1,1.60,130118,,E*49
$GPGGA,072046.436,3754.846,N,08202.431,W,0,00,,,M,,M,,*56
$GPGLL,3754.846,N,08202.431,W,072047.436,V*37
$GPRMC,072048.436,V,3754.844,N,08202.430,W,74.5,1.83,130118,,E*4F
$GPGGA,072049.436,3754.844,N,08202.430,W,0,00,,,M,,M,,*5A
$GPGLL,3754.844,N,08202.430,W,072050.436,V*32
$GPRMC,072051.436,V,3754.842,N,08202.430,W,64.1,1.86,130118,,E*41
$GPGGA,072052.436,3754.842,N,08202.430,W,0,00,,,M,,M,,*56
$GPGLL,3754.842,N,08202.430,W,072053.436,V*37
$GPRMC,072054.436,V,3754.840,N,08202.429,W,85.5,1.89,130118,,E*4A
$GPGGA,072055.436,3754.840,N,08202.429,W,0,00,,,M,,M,,*5B
$GPGLL,3754.840,N,08202.429,W,072056.436,V*38
$GPRMC,072057.436,V,3754.838,N,08202.429,W,13.2,1.90,130118,,E*46
$GPGGA,072058.436,3754.838,N,08202.429,W,0,00,,,M,,M,,*59
$GPGLL,3754.838,N,08202.429,W,072059.436,V*38
$GPRMC,072100.436,V,3754.837,N,08202.429,W,66.2,1.83,130118,,E*4A
$GPGGA,072101.436,3754.837,N,08202.429,W,0,00,,,M,,M,,*5B
$GPGLL,3754.837,N,08202.429,W,072102.436,V*38
$GPRMC,072103.436,V,3754.835,N,08202.428,W,32.2,1.93,130118,,E*4A
$GPGGA,072104.436,3754.835,N,08202.428,W,0,00,,,M,,M,,*5D
$GPGLL,3754.835,N,08202.428,W,072105.436,V*3C
$GPRMC,072106.436,V,3754.833,N,08202.428,W,3.0,1.95,130118,,E*7F
$GPGGA,072107.436,3754.833,N,08202.428,W,0,00,,,M,,M,,*58
$GPGLL,3754.833,N,08202.428,W,072108.436,V*37
$GPRMC,072109.436,V,3754.831,N,08202.428,W,77.9,1.94,130118,,E*49
$GPGGA,072110.436,3754.831,N,08202.428,W,0,00,,,M,,M,,*5C
$GPGLL,3754.831,N,08202.428,W,072111.436,V*3D
$GPRMC,072112.436,V,3754.830,N,08202.428,W,75.7,2.02,130118,,E*42
$GPGGA,072113.436,3754.830,N,08202.428,W,0,00,,,M,,M,,*5E
$GPGLL,3754.830,N,08202.428,W,072114.436,V*39
$GPRMC,072115.436,V,3754.828,N,08202.429,W,77.5,2.12,130118,,E*4C
$GPGGA,072116.436,3754.828,N,08202.429,W,0,00,,,M,,M,,*53
$GPGLL,3754.828,N,08202.429,W,072117.436,V*32
$GPRMC,072118.436,V,3754.826,N,08202.429,W,86.9,2.22,130118,,E*4E
$GPGGA,072119.436,3754.826,N,08202.429,W,0,00,,,M,,M,,*52
$GPGLL,3754.826,N,08202.429,W,072120.436,V*38
$GPRMC,072121.436,V,3754.825,N,08202.431,W,26.5,2.69,130118,,E*47
$GPGGA,072122.436,3754.825,N,08202.431,W,0,00,,,M,,M,,*50
$GPGLL,3754.825,N,08202.431,W,072123.436,V*31
$GPRMC,072124.436,V,3754.824,N,08202.432,W,35.7,2.63,130118,,E*4A
$GPGGA,072125.436,3754.824,N,08202.432,W,0,00,,,M,,M,,*55
$GPGLL,3754.824,N,08202.432,W,072126.436,V*36
$GPRMC,072127.436,V,3754.823,N,08202.434,W,4.8,2.58,130118,,E*7D
$GPGGA,072128.436,3754.823,N,08202.434,W,0,00,,,M,,M,,*59
$GPGLL,3754.823,N,08202.434,W,072129.436,V*38
$GPRMC,072130.436,V,3754.822,N,08202.435,W,73.6,2.51,130118,,E*4C
$GPGGA,072131.436,3754.822,N,08202.435,W,0,00,,,M,,M,,*51
$GPGLL,3754.822,N,08202.435,W,072132.436,V*32
$GPRMC,072133.436,V,3754.821,N,08202.436,W,77.9,2.45,130118,,E*41
$GPGGA,072134.436,3754.821,N,08202.436,W,0,00,,,M,,M,,*54
$GPGLL,3754.821,N,08202.436,W,072135.436,V*35
$GPRMC,072136.436,V,3754.819,N,08202.437,W,99.0,2.52,130118,,E*41
$GPGGA,072137.436,3754.819,N,08202.437,W,0,00,,,M,,M,,*5D
$GPGLL,3754.819,N,08202.437,W,072138.436,V*32
$GPRMC,072139.436,V,3754.818,N,08202.439,W,10.5,2.46,130118,,E*40
$GPGGA,072140.436,3754.818,N,08202.439,W,0,00,,,M,,M,,*52
$GPGLL,3754.818,N,08202.439,W,072141.436,V*33
$GPRMC,072142.436,V,3754.816,N,08202.440,W,55.4,2.36,130118,,E*4B
$GPGGA,072143.436,3754.816,N,08202.440,W,0,00,,,M,,M,,*51
$GPGLL,3754.816,N,08202.440,W,072144.436,V*36
$GPRMC,072145.436,V,3754.815,N,08202.440,W,29.6,2.30,130118,,E*40
$GPGGA,072146.436,3754.815,N,08202.440,W,0,00,,,M,,M,,*57
$GPGLL,3754.815,N,08202.440,W,072147.436,V*36
$GPRMC,072148.436,V,3754.813,N,08202.441,W,75.0,2.28,130118,,E*4C
$GPGGA,072149.436,3754.813,N,08202.441,W,0,00,,,M,,M,,*5F
$GPGLL,3754.813,N,08202.441,W,072150.436,V*37
$GPRMC,072151.436,V,3754.812,N,08202.442,W,87.4,2.20,130118,,E*47
$GPGGA,072152.436,3754.812,N,08202.442,W,0,00,,,M,,M,,*57
$GPGLL,3754.812,N,08202.442,W,072153.436,V*36
$GPRMC,072154.436,V,3754.810,N,08202.442,W,15.4,2.16,130118,,E*4E
$GPGGA,072155.436,3754.810,N,08202.442,W,0,00,,,M,,M,,*52
$GPGLL,3754.810,N,08202.442,W,072156.436,V*31
$GPRMC,072157.436,V,3754.808,N,08202.443,W,72.2,2.17,130118,,E*43
$GPGGA,072158.436,3754.808,N,08202.443,W,0,00,,,M,,M,,*57
$GPGLL,3754.808,N,08202.443,W,072159.436,V*36
$GPRMC,072200.436,V,3754.806,N,08202.443,W,83.7,2.12,130118,,E*42
$GPGGA,072201.436,3754.806,N,08202.443,W,0,00,,,M,,M,,*56
$GPGLL,3754.806,N,08202.443,W,072202.436,V*35
$GPRMC,072203.436,V,3754.805,N,08202.443,W,33.0,2.12,130118,,E*4E
$GPGGA,072204.436,3754.805,N,08202.443,W,0,00,,,M,,M,,*50
$GPGLL,3754.805,N,08202.443,W,072205.436,V*31
$GPRMC,072206.436,V,3754.803,N,08202.444,W,2.3,2.20,130118,,E*7A
$GPGGA,072207.436,3754.803,N,08202.444,W,0,00,,,M,,M,,*52
$GPGLL,3754.803,N,08202.444,W,072208.436,V*3D
$GPRMC,072209.436,V,3754.801,N,08202.444,W,87.2,2.16,130118,,E*4E
$GPGGA,072210.436,3754.801,N,08202.444,W,0,00,,,M,,M,,*56
$GPGLL,3754.801,N,08202.444,W,072211.436,V*37
$GPRMC,072212.436,V,3754.799,N,08202.445,W,86.9,2.22,130118,,E*46
$GPGGA,072213.436,3754.799,N,08202.445,W,0,00,,,M,,M,,*5A
$GPGLL,3754.799,N,08202.445,W,072214.436,V*3D
$GPRMC,072215.436,V,3754.798,N,08202.446,W,60.1,2.27,130118,,E*46
$GPGGA,072216.436,3754.798,N,08202.446,W,0,00,,,M,,M,,*5D
$GPGLL,3754.798,N,08202.446,W,072217.436,V*3C
$GPRMC,072218.436,V,3754.796,N,08202.446,W,85.3,2.17,130118,,E*4F
$GPGGA,072219.436,3754.796,N,08202.446,W,0,00,,,M,,M,,*5C
$GPGLL,3754.796,N,08202.446,W,072220.436,V*36
$GPRMC,072221.436,V,3754.794,N,08202.447,W,31.2,2.09,130118,,E*47
$GPGGA,072222.436,3754.794,N,08202.447,W,0,00,,,M,,M,,*57
$GPGLL,3754.794,N,08202.447,W,072223.436,V*36
$GPRMC,072224.436,V,3754.792,N,08202.447,W,36.6,2.08,130118,,E*46
$GPGGA,072225.436,3754.792,N,08202.447,W,0,00,,,M,,M,,*56
$GPGLL,3754.792,N,08202.447,W,072226.436,V*35
$GPRMC,072227.436,V,3754.791,N,08202.447,W,18.4,2.07,130118,,E*47
$GPGGA,072228.436,3754.791,N,08202.447,W,0,00,,,M,,M,,*58
$GPGLL,3754.791,N,08202.447,W,072229.436,V*39
$GPRMC,072230.436,V,3754.789,N,08202.447,W,72.9,2.15,130118,,E*4A
$GPGGA,072231.436,3754.789,N,08202.447,W,0,00,,,M,,M,,*59
$GPGLL,3754.789,N,08202.447,W,072232.436,V*3A
$GPGLL,3754.825,N,08202.431,W,072123.436,V*31
$GPRMC,072124.436,V,3754.824,N,08202.432,W,35.7,2.63,130118,,E*4A
$GPGGA,072125.436,3754.824,N,08202.432,W,0,00,,,M,,M,,*55
$GPGLL,3754.824,N,08202.432,W,072126.436,V*36
$GPRMC,072127.436,V,3754.823,N,08202.434,W,4.8,2.58,130118,,E*7D
$GPGGA,072128.436,3754.823,N,08202.434,W,0,00,,,M,,M,,*59
$GPGLL,3754.823,N,08202.434,W,072129.436,V*38
$GPRMC,072130.436,V,3754.822,N,08202.435,W,73.6,2.51,130118,,E*4C
$GPGGA,072131.436,3754.822,N,08202.435,W,0,00,,,M,,M,,*51
$GPGLL,3754.822,N,08202.435,W,072132.436,V*32
$GPRMC,072133.436,V,3754.821,N,08202.436,W,77.9,2.45,130118,,E*41
$GPGGA,072134.436,3754.821,N,08202.436,W,0,00,,,M,,M,,*54
$GPGLL,3754.821,N,08202.436,W,072135.436,V*35
$GPRMC,072136.436,V,3754.819,N,08202.437,W,99.0,2.52,130118,,E*41
$GPGGA,072137.436,3754.819,N,08202.437,W,0,00,,,M,,M,,*5D
$GPGLL,3754.819,N,08202.437,W,072138.436,V*32
$GPRMC,072139.436,V,3754.818,N,08202.439,W,10.5,2.46,130118,,E*40
$GPGGA,072140.436,3754.818,N,08202.439,W,0,00,,,M,,M,,*52
$GPGLL,3754.818,N,08202.439,W,072141.436,V*33
$GPRMC,072142.436,V,3754.816,N,08202.440,W,55.4,2.36,130118,,E*4B
$GPGGA,072143.436,3754.816,N,08202.440,W,0,00,,,M,,M,,*51
$GPGLL,3754.816,N,08202.440,W,072144.436,V*36
$GPRMC,072145.436,V,3754.815,N,08202.440,W,29.6,2.30,130118,,E*40
$GPGGA,072146.436,3754.815,N,08202.440,W,0,00,,,M,,M,,*57
$GPGLL,3754.815,N,08202.440,W,072147.436,V*36
$GPRMC,072148.436,V,3754.813,N,08202.441,W,75.0,2.28,130118,,E*4C
$GPGGA,072149.436,3754.813,N,08202.441,W,0,00,,,M,,M,,*5F
$GPGLL,3754.813,N,08202.441,W,072150.436,V*37
$GPRMC,072151.436,V,3754.812,N,08202.442,W,87.4,2.20,130118,,E*47
$GPGGA,072152.436,3754.812,N,08202.442,W,0,00,,,M,,M,,*57
$GPGLL,3754.812,N,08202.442,W,072153.436,V*36
$GPRMC,072154.436,V,3754.810,N,08202.442,W,15.4,2.16,130118,,E*4E
$GPGGA,072155.436,3754.810,N,08202.442,W,0,00,,,M,,M,,*52
$GPGLL,3754.810,N,08202.442,W,072156.436,V*31
$GPRMC,072157.436,V,3754.808,N,08202.443,W,72.2,2.17,130118,,E*43
$GPGGA,072158.436,3754.808,N,08202.443,W,0,00,,,M,,M,,*57
$GPGLL,3754.808,N,08202.443,W,072159.436,V*36
$GPRMC,072200.436,V,3754.806,N,08202.443,W,83.7,2.12,130118,,E*42
$GPGGA,072201.436,3754.806,N,08202.443,W,0,00,,,M,,M,,*56
$GPGLL,3754.806,N,08202.443,W,072202.436,V*35
$GPRMC,072203.436,V,3754.805,N,08202.443,W,33.0,2.12,130118,,E*4E
$GPGGA,072204.436,3754.805,N,08202.443,W,0,00,,,M,,M,,*50
$GPGLL,3754.805,N,08202.443,W,072205.436,V*31
$GPRMC,072206.436,V,3754.803,N,08202.444,W,2.3,2.20,130118,,E*7A
$GPGGA,072207.436,3754.803,N,08202.444,W,0,00,,,M,,M,,*52
$GPGLL,3754.803,N,08202.444,W,072208.436,V*3D
$GPRMC,072209.436,V,3754.801,N,08202.444,W,87.2,2.16,130118,,E*4E
$GPGGA,072210.436,3754.801,N,08202.444,W,0,00,,,M,,M,,*56
$GPGLL,3754.801,N,08202.444,W,072211.436,V*37
$GPRMC,072212.436,V,3754.799,N,08202.445,W,86.9,2.22,130118,,E*46
$GPGGA,072213.436,3754.799,N,08202.445,W,0,00,,,M,,M,,*5A
$GPGLL,3754.799,N,08202.445,W,072214.436,V*3D
$GPRMC,072215.436,V,3754.798,N,08202.446,W,60.1,2.27,130118,,E*46
$GPGGA,072216.436,3754.798,N,08202.446,W,0,00,,,M,,M,,*5D
$GPGLL,3754.798,N,08202.446,W,072217.436,V*3C
$GPRMC,072218.436,V,3754.796,N,08202.446,W,85.3,2.17,130118,,E*4F
$GPGGA,072219.436,3754.796,N,08202.446,W,0,00,,,M,,M,,*5C
$GPGLL,3754.796,N,08202.446,W,072220.436,V*36
$GPRMC,072221.436,V,3754.794,N,08202.447,W,31.2,2.09,130118,,E*47
$GPGGA,072222.436,3754.794,N,08202.447,W,0,00,,,M,,M,,*57
$GPGLL,3754.794,N,08202.447,W,072223.436,V*36
$GPRMC,072224.436,V,3754.792,N,08202.447,W,36.6,2.08,130118,,E*46
$GPGGA,072225.436,3754.792,N,08202.447,W,0,00,,,M,,M,,*56
$GPGLL,3754.792,N,08202.447,W,072226.436,V*35
$GPRMC,072227.436,V,3754.791,N,08202.447,W,18.4,2.07,130118,,E*47
$GPGGA,072228.436,3754.791,N,08202.447,W,0,00,,,M,,M,,*58
$GPGLL,3754.791,N,08202.447,W,072229.436,V*39
$GPRMC,072230.436,V,3754.789,N,08202.447,W,72.9,2.15,130118,,E*4A
$GPGGA,072231.436,3754.789,N,08202.447,W,0,00,,,M,,M,,*59
$GPGLL,3754.789,N,08202.447,W,072232.436,V*3A
$GPGGA,072013.436,3754.861,N,08202.442,W,0,00,,,M,,M,,*57
$GPGLL,3754.861,N,08202.442,W,072014.436,V*30
$GPRMC,072015.436,V,3754.860,N,08202.441,W,23.3,1.55,130118,,E*48
$GPGGA,072016.436,3754.860,N,08202.441,W,0,00,,,M,,M,,*50
$GPGLL,3754.860,N,08202.441,W,072017.436,V*31
$GPRMC,072018.436,V,3754.859,N,08202.440,W,23.2,1.62,130118,,E*4B
$GPGGA,072019.436,3754.859,N,08202.440,W,0,00,,,M,,M,,*54
$GPGLL,3754.859,N,08202.440,W,072020.436,V*3E
$GPRMC,072021.436,V,3754.857,N,08202.439,W,84.8,1.55,130118,,E*42
$GPGGA,072022.436,3754.857,N,08202.439,W,0,00,,,M,,M,,*5C
$GPGLL,3754.857,N,08202.439,W,072023.436,V*3D
$GPRMC,072024.436,V,3754.856,N,08202.438,W,53.2,1.58,130118,,E*4A
$GPGGA,072025.436,3754.856,N,08202.438,W,0,00,,,M,,M,,*5B
$GPGLL,3754.856,N,08202.438,W,072026.436,V*38
$GPRMC,072027.436,V,3754.854,N,08202.437,W,42.9,1.51,130118,,E*46
$GPGGA,072028.436,3754.854,N,08202.437,W,0,00,,,M,,M,,*5B
$GPGLL,3754.854,N,08202.437,W,072029.436,V*3A
$GPRMC,072030.436,V,3754.853,N,08202.436,W,75.6,1.62,130118,,E*4D
$GPGGA,072031.436,3754.853,N,08202.436,W,0,00,,,M,,M,,*55
$GPGLL,3754.853,N,08202.436,W,072032.436,V*36
$GPRMC,072033.436,V,3754.851,N,08202.435,W,2.0,1.66,130118,,E*7D
$GPGGA,072034.436,3754.851,N,08202.435,W,0,00,,,M,,M,,*51
$GPGLL,3754.851,N,08202.435,W,072035.436,V*30
$GPRMC,072036.436,V,3754.850,N,08202.434,W,45.8,1.58,130118,,E*4E
$GPGGA,072037.436,3754.850,N,08202.434,W,0,00,,,M,,M,,*52
$GPGLL,3754.850,N,08202.434,W,072038.436,V*3D
$GPRMC,072039.436,V,3754.848,N,08202.433,W,91.3,1.68,130118,,E*4E
$GPGGA,072040.436,3754.848,N,08202.433,W,0,00,,,M,,M,,*5C
$GPGLL,3754.848,N,08202.433,W,072041.436,V*3D
$GPRMC,072042.436,V,3754.847,N,08202.432,W,75.8,1.60,130118,,E*45
$GPGGA,072043.436,3754.847,N,08202.432,W,0,00,,,M,,M,,*51
$GPGLL,3754.847,N,08202.432,W,072044.436,V*36
$GPRMC,072045.436,V,3754.846,N,08202.431,W,46.1,1.60,130118,,E*49
$GPGGA,072046.436,3754.846,N,08202.431,W,0,00,,,M,,M,,*56
$GPGLL,3754.846,N,08202.431,W,072047.436,V*37
$GPRMC,072048.436,V,3754.844,N,08202.430,W,74.5,1.83,130118,,E*4F
$GPGGA,072049.436,3754.844,N,08202.430,W,0,00,,,M,,M,,*5A
$GPGLL,3754.844,N,08202.430,W,072050.436,V*32
$GPRMC,072051.436,V,3754.842,N,08202.430,W,64.1,1.86,130118,,E*41
$GPGGA,072052.436,3754.842,N,08202.430,W,0,00,,,M,,M,,*56
$GPGLL,3754.842,N,08202.430,W,072053.436,V*37
$GPRMC,072054.436,V,3754.840,N,08202.429,W,85.5,1.89,130118,,E*4A
$GPGGA,072055.436,3754.840,N,08202.429,W,0,00,,,M,,M,,*5B
$GPGLL,3754.840,N,08202.429,W,072056.436,V*38
$GPRMC,072057.436,V,3754.838,N,08202.429,W,13.2,1.90,130118,,E*46
$GPGGA,072058.436,3754.838,N,08202.429,W,0,00,,,M,,M,,*59
$GPGLL,3754.838,N,08202.429,W,072059.436,V*38
$GPRMC,072100.436,V,3754.837,N,08202.429,W,66.2,1.83,130118,,E*4A
$GPGGA,072101.436,3754.837,N,08202.429,W,0,00,,,M,,M,,*5B
$GPGLL,3754.837,N,08202.429,W,072102.436,V*38
$GPRMC,072103.436,V,3754.835,N,08202.428,W,32.2,1.93,130118,,E*4A
$GPGGA,072104.436,3754.835,N,08202.428,W,0,00,,,M,,M,,*5D
$GPGLL,3754.835,N,08202.428,W,072105.436,V*3C
$GPRMC,072106.436,V,3754.833,N,08202.428,W,3.0,1.95,130118,,E*7F
$GPGGA,072107.436,3754.833,N,08202.428,W,0,00,,,M,,M,,*58
$GPGLL,3754.833,N,08202.428,W,072108.436,V*37
$GPRMC,072109.436,V,3754.831,N,08202.428,W,77.9,1.94,130118,,E*49
$GPGGA,072110.436,3754.831,N,08202.428,W,0,00,,,M,,M,,*5C
$GPGLL,3754.831,N,08202.428,W,072111.436,V*3D
$GPRMC,072112.436,V,3754.830,N,08202.428,W,75.7,2.02,130118,,E*42
$GPGGA,072113.436,3754.830,N,08202.428,W,0,00,,,M,,M,,*5E
$GPGLL,3754.830,N,08202.428,W,072114.436,V*39
$GPRMC,072115.436,V,3754.828,N,08202.429,W,77.5,2.12,130118,,E*4C
$GPGGA,072116.436,3754.828,N,08202.429,W,0,00,,,M,,M,,*53
$GPGLL,3754.828,N,08202.429,W,072117.436,V*32
$GPRMC,072118.436,V,3754.826,N,08202.429,W,86.9,2.22,130118,,E*4E
$GPGGA,072119.436,3754.826,N,08202.429,W,0,00,,,M,,M,,*52
$GPGLL,3754.826,N,08202.429,W,072120.436,V*38
$GPRMC,072121.436,V,3754.825,N,08202.431,W,26.5,2.69,130118,,E*47
$GPGGA,072122.436,3754.825,N,08202.431,W,0,00,,,M,,M,,*50
$GPGLL,3754.825,N,08202.431,W,072123.436,V*31
$GPRMC,072124.436,V,3754.824,N,08202.432,W,35.7,2.63,130118,,E*4A
$GPGGA,072125.436,3754.824,N,08202.432,W,0,00,,,M,,M,,*55
$GPGLL,3754.824,N,08202.432,W,072126.436,V*36
$GPRMC,072127.436,V,3754.823,N,08202.434,W,4.8,2.58,130118,,E*7D
$GPGGA,072128.436,3754.823,N,08202.434,W,0,00,,,M,,M,,*59
$GPGLL,3754.823,N,08202.434,W,072129.436,V*38
$GPRMC,072130.436,V,3754.822,N,08202.435,W,73.6,2.51,130118,,E*4C
$GPGGA,072131.436,3754.822,N,08202.435,W,0,00,,,M,,M,,*51
$GPGLL,3754.822,N,08202.435,W,072132.436,V*32
$GPRMC,072133.436,V,3754.821,N,08202.436,W,77.9,2.45,130118,,E*41
$GPGGA,072134.436,3754.821,N,08202.436,W,0,00,,,M,,M,,*54
$GPGLL,3754.821,N,08202.436,W,072135.436,V*35
$GPRMC,072136.436,V,3754.819,N,08202.437,W,99.0,2.52,130118,,E*41
$GPGGA,072137.436,3754.819,N,08202.437,W,0,00,,,M,,M,,*5D
$GPGLL,3754.819,N,08202.437,W,072138.436,V*32
$GPRMC,072139.436,V,3754.818,N,08202.439,W,10.5,2.46,130118,,E*40
$GPGGA,072140.436,3754.818,N,08202.439,W,0,00,,,M,,M,,*52
$GPGLL,3754.818,N,08202.439,W,072141.436,V*33
$GPRMC,072142.436,V,3754.816,N,08202.440,W,55.4,2.36,130118,,E*4B
$GPGLL,3754.822,N,08202.435,W,072132.436,V*32
$GPRMC,072133.436,V,3754.821,N,08202.436,W,77.9,2.45,130118,,E*41
$GPGGA,072134.436,3754.821,N,08202.436,W,0,00,,,M,,M,,*54
$GPGLL,3754.821,N,08202.436,W,072135.436,V*35
$GPRMC,072136.436,V,3754.819,N,08202.437,W,99.0,2.52,130118,,E*41
$GPGGA,072137.436,3754.819,N,08202.437,W,0,00,,,M,,M,,*5D
$GPGLL,3754.819,N,08202.437,W,072138.436,V*32
$GPRMC,072139.436,V,3754.818,N,08202.439,W,10.5,2.46,130118,,E*40
$GPGGA,072140.436,3754.818,N,08202.439,W,0,00,,,M,,M,,*52
$GPGLL,3754.818,N,08202.439,W,072141.436,V*33
$GPRMC,072142.436,V,3754.816,N,08202.440,W,55.4,2.36,130118,,E*4B
$GPGGA,072143.436,3754.816,N,08202.440,W,0,00,,,M,,M,,*51
$GPGLL,3754.816,N,08202.440,W,072144.436,V*36
$GPRMC,072145.436,V,3754.815,N,08202.440,W,29.6,2.30,130118,,E*40
$GPGGA,072146.436,3754.815,N,08202.440,W,0,00,,,M,,M,,*57
$GPGLL,3754.815,N,08202.440,W,072147.436,V*36
$GPRMC,072148.436,V,3754.813,N,08202.441,W,75.0,2.28,130118,,E*4C
$GPGGA,072149.436,3754.813,N,08202.441,W,0,00,,,M,,M,,*5F
$GPGLL,3754.813,N,08202.441,W,072150.436,V*37
$GPRMC,072151.436,V,3754.812,N,08202.442,W,87.4,2.20,130118,,E*47
$GPGGA,072152.436,3754.812,N,08202.442,W,0,00,,,M,,M,,*57
$GPGLL,3754.812,N,08202.442,W,072153.436,V*36
$GPRMC,072154.436,V,3754.810,N,08202.442,W,15.4,2.16,130118,,E*4E
$GPGGA,072155.436,3754.810,N,08202.442,W,0,00,,,M,,M,,*52
$GPGLL,3754.810,N,08202.442,W,072156.436,V*31
$GPRMC,072157.436,V,3754.808,N,08202.443,W,72.2,2.17,130118,,E*43
$GPGGA,072158.436,3754.808,N,08202.443,W,0,00,,,M,,M,,*57
$GPGLL,3754.808,N,08202.443,W,072159.436,V*36
$GPRMC,072200.436,V,3754.806,N,08202.443,W,83.7,2.12,130118,,E*42
$GPGGA,072201.436,3754.806,N,08202.443,W,0,00,,,M,,M,,*56
$GPGLL,3754.806,N,08202.443,W,072202.436,V*35
$GPRMC,072203.436,V,3754.805,N,08202.443,W,33.0,2.12,130118,,E*4E
$GPGGA,072204.436,3754.805,N,08202.443,W,0,00,,,M,,M,,*50
$GPGLL,3754.805,N,08202.443,W,072205.436,V*31
$GPRMC,072206.436,V,3754.803,N,08202.444,W,2.3,2.20,130118,,E*7A
$GPGGA,072207.436,3754.803,N,08202.444,W,0,00,,,M,,M,,*52
$GPGLL,3754.803,N,08202.444,W,072208.436,V*3D
$GPRMC,072209.436,V,3754.801,N,08202.444,W,87.2,2.16,130118,,E*4E
$GPGGA,072210.436,3754.801,N,08202.444,W,0,00,,,M,,M,,*56
$GPGLL,3754.801,N,08202.444,W,072211.436,V*37
$GPRMC,072212.436,V,3754.799,N,08202.445,W,86.9,2.22,130118,,E*46
$GPGGA,072213.436,3754.799,N,08202.445,W,0,00,,,M,,M,,*5A
$GPGLL,3754.799,N,08202.445,W,072214.436,V*3D
$GPRMC,072215.436,V,3754.798,N,08202.446,W,60.1,2.27,130118,,E*46
$GPGGA,072216.436,3754.798,N,08202.446,W,0,00,,,M,,M,,*5D
$GPGLL,3754.798,N,08202.446,W,072217.436,V*3C
$GPRMC,072218.436,V,3754.796,N,08202.446,W,85.3,2.17,130118,,E*4F
$GPGGA,072219.436,3754.796,N,08202.446,W,0,00,,,M,,M,,*5C
$GPGLL,3754.796,N,08202.446,W,072220.436,V*36
$GPRMC,072221.436,V,3754.794,N,08202.447,W,31.2,2.09,130118,,E*47
$GPGGA,072222.436,3754.794,N,08202.447,W,0,00,,,M,,M,,*57
$GPGLL,3754.794,N,08202.447,W,072223.436,V*36
$GPRMC,072224.436,V,3754.792,N,08202.447,W,36.6,2.08,130118,,E*46
$GPGGA,072225.436,3754.792,N,08202.447,W,0,00,,,M,,M,,*56
$GPGLL,3754.792,N,08202.447,W,072226.436,V*35
$GPRMC,072227.436,V,3754.791,N,08202.447,W,18.4,2.07,130118,,E*47
$GPGGA,072228.436,3754.791,N,08202.447,W,0,00,,,M,,M,,*58
$GPGLL,3754.791,N,08202.447,W,072229.436,V*39
$GPRMC,072230.436,V,3754.789,N,08202.447,W,72.9,2.15,130118,,E*4A
$GPGGA,072231.436,3754.789,N,08202.447,W,0,00,,,M,,M,,*59
$GPGLL,3754.789,N,08202.447,W,072232.436,V*3A
$GPGGA,072013.436,3754.861,N,08202.442,W,0,00,,,M,,M,,*57
$GPGLL,3754.861,N,08202.442,W,072014.436,V*30
$GPRMC,072015.436,V,3754.860,N,08202.441,W,23.3,1.55,130118,,E*48
$GPGGA,072016.436,3754.860,N,08202.441,W,0,00,,,M,,M,,*50
$GPGLL,3754.860,N,08202.441,W,072017.436,V*31
$GPRMC,072018.436,V,3754.859,N,08202.440,W,23.2,1.62,130118,,E*4B
$GPGGA,072019.436,3754.859,N,08202.440,W,0,00,,,M,,M,,*54
$GPGGA,071810.436,3754.910,N,08202.484,W,0,00,,,M,,M,,*52
$GPGLL,3754.910,N,08202.484,W,071811.436,V*33
$GPRMC,071812.436,V,3754.909,N,08202.483,W,76.2,1.59,130118,,E*49
$GPGGA,071813.436,3754.909,N,08202.483,W,0,00,,,M,,M,,*5E
$GPGLL,3754.909,N,08202.483,W,071814.436,V*39
$GPRMC,071815.436,V,3754.908,N,08202.482,W,37.2,1.52,130118,,E*40
$GPGGA,071816.436,3754.908,N,08202.482,W,0,00,,,M,,M,,*5B
$GPGLL,3754.908,N,08202.482,W,071817.436,V*3A
$GPRMC,071818.436,V,3754.906,N,08202.481,W,22.5,1.60,130118,,E*42
$GPGGA,071819.436,3754.906,N,08202.481,W,0,00,,,M,,M,,*59
$GPGLL,3754.906,N,08202.481,W,071820.436,V*33
$GPRMC,071821.436,V,3754.905,N,08202.480,W,6.1,1.53,130118,,E*78
$GPGGA,071822.436,3754.905,N,08202.480,W,0,00,,,M,,M,,*53
$GPGLL,3754.905,N,08202.480,W,071823.436,V*32
$GPRMC,071824.436,V,3754.903,N,08202.479,W,61.0,1.59,130118,,E*47
$GPGGA,071825.436,3754.903,N,08202.479,W,0,00,,,M,,M,,*54
$GPGLL,3754.903,N,08202.479,W,071826.436,V*37
$GPRMC,071827.436,V,3754.902,N,08202.478,W,13.6,1.94,130118,,E*46
$GPGGA,071828.436,3754.902,N,08202.478,W,0,00,,,M,,M,,*59
$GPGLL,3754.902,N,08202.478,W,071829.436,V*38
$GPRMC,071830.436,V,3754.900,N,08202.478,W,95.4,1.85,130118,,E*4E
$GPGGA,071831.436,3754.900,N,08202.478,W,0,00,,,M,,M,,*53
$GPGLL,3754.900,N,08202.478,W,071832.436,V*30
$GPRMC,071833.436,V,3754.898,N,08202.478,W,81.2,1.94,130118,,E*4E
$GPGGA,071834.436,3754.898,N,08202.478,W,0,00,,,M,,M,,*56
$GPGLL,3754.898,N,08202.478,W,071835.436,V*37
$GPRMC,071836.436,V,3754.896,N,08202.477,W,2.5,1.88,130118,,E*7B
$GPGGA,071837.436,3754.896,N,08202.477,W,0,00,,,M,,M,,*54
$GPGLL,3754.896,N,08202.477,W,071838.436,V*3B
$GPRMC,071839.436,V,3754.895,N,08202.477,W,90.0,1.94,130118,,E*44
$GPGGA,071840.436,3754.895,N,08202.477,W,0,00,,,M,,M,,*57
$GPGLL,3754.895,N,08202.477,W,071841.436,V*36
$GPRMC,071842.436,V,3754.893,N,08202.477,W,72.8,1.91,130118,,E*4F
$GPGGA,071843.436,3754.893,N,08202.477,W,0,00,,,M,,M,,*52
$GPGLL,3754.893,N,08202.477,W,071844.436,V*35
$GPRMC,071845.436,V,3754.891,N,08202.477,W,26.5,2.01,130118,,E*4C
$GPGGA,071846.436,3754.891,N,08202.477,W,0,00,,,M,,M,,*55
$GPGLL,3754.891,N,08202.477,W,071847.436,V*34
$GPRMC,071848.436,V,3754.889,N,08202.477,W,94.4,1.98,130118,,E*43
$GPGGA,071849.436,3754.889,N,08202.477,W,0,00,,,M,,M,,*53
$GPGLL,3754.889,N,08202.477,W,071850.436,V*3B
$GPRMC,071851.436,V,3754.887,N,08202.477,W,4.6,1.94,130118,,E*72
$GPGGA,071852.436,3754.887,N,08202.477,W,0,00,,,M,,M,,*57
$GPGLL,3754.887,N,08202.477,W,071853.436,V*36
$GPRMC,071854.436,V,3754.886,N,08202.477,W,21.3,1.94,130118,,E*44
$GPGGA,071855.436,3754.886,N,08202.477,W,0,00,,,M,,M,,*51
$GPGLL,3754.886,N,08202.477,W,071856.436,V*32
$GPRMC,071857.436,V,3754.884,N,08202.476,W,43.7,1.93,130118,,E*43
$GPGGA,071858.436,3754.884,N,08202.476,W,0,00,,,M,,M,,*5F
$GPGLL,3754.884,N,08202.476,W,071859.436,V*3E
$GPRMC,071900.436,V,3754.882,N,08202.476,W,32.5,1.94,130118,,E*45
$GPGGA,071901.436,3754.882,N,08202.476,W,0,00,,,M,,M,,*54
$GPGLL,3754.882,N,08202.476,W,071902.436,V*37
$GPRMC,071903.436,V,3754.880,N,08202.476,W,22.7,1.87,130118,,E*45
$GPGGA,071904.436,3754.880,N,08202.476,W,0,00,,,M,,M,,*53
$GPGLL,3754.880,N,08202.476,W,071905.436,V*32
$GPRMC,071906.436,V,3754.879,N,08202.475,W,47.9,1.82,130118,,E*4D
$GPGGA,071907.436,3754.879,N,08202.475,W,0,00,,,M,,M,,*55
$GPGLL,3754.879,N,08202.475,W,071908.436,V*3A
$GPRMC,071909.436,V,3754.877,N,08202.475,W,90.6,1.77,130118,,E*43
$GPGGA,071910.436,3754.877,N,08202.475,W,0,00,,,M,,M,,*5D
$GPGLL,3754.877,N,08202.475,W,071911.436,V*3C
$GPRMC,071912.436,V,3754.876,N,08202.473,W,61.9,1.29,130118,,E*44
$GPGGA,071913.436,3754.876,N,08202.473,W,0,00,,,M,,M,,*59
$GPGLL,3754.876,N,08202.473,W,071914.436,V*3E
$GPRMC,071915.436,V,3754.875,N,08202.472,W,55.7,1.27,130118,,E*46
$GPGGA,071916.436,3754.875,N,08202.472,W,0,00,,,M,,M,,*5E
$GPGLL,3754.875,N,08202.472,W,071917.436,V*3F
$GPRMC,071918.436,V,3754.875,N,08202.470,W,63.6,1.18,130118,,E*41
$GPGGA,071919.436,3754.875,N,08202.470,W,0,00,,,M,,M,,*53
$GPGLL,3754.875,N,08202.470,W,071920.436,V*39
$GPRMC,071921.436,V,3754.874,N,08202.468,W,76.1,1.23,130118,,E*48
$GPGGA,071922.436,3754.874,N,08202.468,W,0,00,,,M,,M,,*53
$GPGLL,3754.874,N,08202.468,W,071923.436,V*32
$GPRMC,071924.436,V,3754.874,N,08202.466,W,2.8,1.15,130118,,E*7C
$GPGGA,071925.436,3754.874,N,08202.466,W,0,00,,,M,,M,,*5A
$GPGLL,3754.874,N,08202.466,W,071926.436,V*39
$GPRMC,071927.436,V,3754.874,N,08202.465,W,29.0,1.06,130118,,E*4F
$GPGGA,071928.436,3754.874,N,08202.465,W,0,00,,,M,,M,,*54
$GPGLL,3754.874,N,08202.465,W,071929.436,V*35
$GPRMC,071930.436,V,3754.873,N,08202.463,W,7.7,1.16,130118,,E*72
$GPGGA,071931.436,3754.873,N,08202.463,W,0,00,,,M,,M,,*5D
$GPGLL,3754.873,N,08202.463,W,071932.436,V*3E
$GPRMC,071933.436,V,3754.873,N,08202.461,W,44.0,1.23,130118,,E*45
$GPGGA,071934.436,3754.873,N,08202.461,W,0,00,,,M,,M,,*5A
$GPGLL,3754.873,N,08202.461,W,071935.436,V*3B
$GPRMC,071936.436,V,3754.872,N,08202.459,W,6.2,1.12,130118,,E*7C
$GPGGA,071937.436,3754.872,N,08202.459,W,0,00,,,M,,M,,*53
$GPGLL,3754.872,N,08202.459,W,071938.436,V*3C
$GPRMC,071939.436,V,3754.872,N,08202.458,W,85.3,1.17,130118,,E*4D
$GPGGA,071940.436,3754.872,N,08202.458,W,0,00,,,M,,M,,*52
$GPGLL,3754.872,N,08202.458,W,071941.436,V*33
$GPRMC,071942.436,V,3754.871,N,08202.456,W,89.6,1.12,130118,,E*40
$GPGGA,071943.436,3754.871,N,08202.456,W,0,00,,,M,,M,,*5C
$GPGLL,3754.871,N,08202.456,W,071944.436,V*3B
$GPRMC,071945.436,V,3754.871,N,08202.454,W,5.3,1.17,130118,,E*71
$GPGGA,071946.436,3754.871,N,08202.454,W,0,00,,,M,,M,,*5B
$GPGLL,3754.871,N,08202.454,W,071947.436,V*3A
$GPRMC,071948.436,V,3754.871,N,08202.452,W,45.8,1.13,130118,,E*41
$GPGGA,071949.436,3754.871,N,08202.452,W,0,00,,,M,,M,,*52
